{"0":{"country":"AE","name":"idhn","lat":"25.460","long":"56.012"},"1":{"country":"AE","name":"ihaid","lat":"25.288","long":"55.881"},"2":{"country":"AE","name":"istaihah","lat":"23.316","long":"54.067"},"3":{"country":"AE","name":"isteiha","lat":"23.316","long":"54.067"},"4":{"country":"AF","name":"iaaz","lat":"34.357","long":"66.236"},"5":{"country":"AF","name":"iangay","lat":"34.088","long":"70.461"},"6":{"country":"AF","name":"iark","lat":"37.902","long":"71.314"},"7":{"country":"AF","name":"'ibad","lat":"33.903","long":"68.936"},"8":{"country":"AF","name":"'ibad kala","lat":"33.427","long":"68.609"},"9":{"country":"AF","name":"ibadkheil'","lat":"34.927","long":"69.629"},"10":{"country":"AF","name":"'ibad khel","lat":"34.927","long":"69.629"},"11":{"country":"AF","name":"ibadl'","lat":"33.903","long":"68.936"},"12":{"country":"AF","name":"ibalam","lat":"34.894","long":"70.319"},"13":{"country":"AF","name":"ibrahim gul kelay","lat":"33.275","long":"69.799"},"14":{"country":"AF","name":"ibrahim","lat":"34.040","long":"70.152"},"15":{"country":"AF","name":"ibrahim","lat":"33.390","long":"68.858"},"16":{"country":"AF","name":"ibrahim kala","lat":"32.496","long":"68.213"},"17":{"country":"AF","name":"ibrahim khalifah baba kelay","lat":"31.402","long":"65.688"},"18":{"country":"AF","name":"ibrahim khan","lat":"35.053","long":"69.256"},"19":{"country":"AF","name":"ibrahim khel","lat":"34.722","long":"69.824"},"20":{"country":"AF","name":"ibrahim khel","lat":"33.977","long":"68.870"},"21":{"country":"AF","name":"ibrahim khel","lat":"36.709","long":"68.884"},"22":{"country":"AF","name":"ibrahim khel","lat":"32.215","long":"67.200"},"23":{"country":"AF","name":"ibrahim khel","lat":"32.090","long":"68.842"},"24":{"country":"AF","name":"ibrahim khel","lat":"34.953","long":"68.821"},"25":{"country":"AF","name":"ibrahim khel sufla","lat":"32.476","long":"67.543"},"26":{"country":"AF","name":"ibrahim khel 'ulya","lat":"32.458","long":"67.526"},"27":{"country":"AF","name":"ibrahim khel wusta","lat":"32.467","long":"67.533"},"28":{"country":"AF","name":"ibrahimwal","lat":"32.000","long":"68.613"},"29":{"country":"AF","name":"ibrahimzai","lat":"30.192","long":"66.102"},"30":{"country":"AF","name":"ibrahimzai","lat":"34.208","long":"68.276"},"31":{"country":"AF","name":"ibrahimzi","lat":"30.192","long":"66.102"},"32":{"country":"AF","name":"ibrakhikhimkheyl'","lat":"33.977","long":"68.870"},"33":{"country":"AF","name":"ibrakhim","lat":"33.390","long":"68.858"},"34":{"country":"AF","name":"ibrakhimkala","lat":"32.496","long":"68.213"},"35":{"country":"AF","name":"ibrakhim-khalifa","lat":"31.402","long":"65.688"},"36":{"country":"AF","name":"ibrakhimkhan","lat":"35.053","long":"69.256"},"37":{"country":"AF","name":"ibrakhimkheil'","lat":"35.996","long":"68.630"},"38":{"country":"AF","name":"ibrakhimkheyl'","lat":"36.709","long":"68.884"},"39":{"country":"AF","name":"ibrakhimkheyl'","lat":"33.217","long":"68.358"},"40":{"country":"AF","name":"ibrakhimkheyl'","lat":"34.722","long":"69.824"},"41":{"country":"AF","name":"ibrakhimkheyl'","lat":"32.215","long":"67.200"},"42":{"country":"AF","name":"ibrakhimkheyl'","lat":"32.090","long":"68.842"},"43":{"country":"AF","name":"ibrakhimkheyl'","lat":"34.953","long":"68.821"},"44":{"country":"AF","name":"ibrakhimkheyl'-sufla","lat":"32.476","long":"67.543"},"45":{"country":"AF","name":"ibrakhimkheyl'-ulia","lat":"32.458","long":"67.526"},"46":{"country":"AF","name":"ibrakhimkheyl' vusta","lat":"32.467","long":"67.533"},"47":{"country":"AF","name":"ibrakhimzai","lat":"34.208","long":"68.276"},"48":{"country":"AF","name":"icargu","lat":"35.560","long":"67.311"},"49":{"country":"AF","name":"ichargu","lat":"35.560","long":"67.311"},"50":{"country":"AF","name":"ichishk","lat":"33.991","long":"66.347"},"51":{"country":"AF","name":"id akbar kalay","lat":"33.275","long":"69.842"},"52":{"country":"AF","name":"'id akbar kelay","lat":"33.275","long":"69.842"},"53":{"country":"AF","name":"idak","lat":"34.731","long":"68.248"},"54":{"country":"AF","name":"idak","lat":"33.167","long":"66.154"},"55":{"country":"AF","name":"'iday","lat":"33.197","long":"68.052"},"56":{"country":"AF","name":"idel","lat":"36.701","long":"69.829"},"57":{"country":"AF","name":"idel","lat":"34.22","long":"68.621"},"58":{"country":"AF","name":"idgul","lat":"35.062","long":"61.546"},"59":{"country":"AF","name":"idil","lat":"36.701","long":"69.829"},"60":{"country":"AF","name":"idil'","lat":"34.22","long":"68.621"},"61":{"country":"AF","name":"idizay","lat":"32.507","long":"64.448"},"62":{"country":"AF","name":"'id mohammad kot","lat":"32.931","long":"69.288"},"63":{"country":"AF","name":"'id muhammad kot","lat":"32.931","long":"69.288"},"64":{"country":"AF","name":"idmukhammedkot","lat":"32.931","long":"69.288"},"65":{"country":"AF","name":"'idokhan","lat":"31.275","long":"61.994"},"66":{"country":"AF","name":"'ido khel","lat":"33.885","long":"68.939"},"67":{"country":"AF","name":"idozi","lat":"30.062","long":"66.060"},"68":{"country":"AF","name":"idris khel","lat":"33.029","long":"68.288"},"69":{"country":"AF","name":"idzhan","lat":"32.984","long":"64.125"},"70":{"country":"AF","name":"idzharab","lat":"31.591","long":"65.709"},"71":{"country":"AF","name":"idzhar","lat":"31.703","long":"67.543"},"72":{"country":"AF","name":"ifarchi-ye pa'in","lat":"37.185","long":"70.493"},"73":{"country":"AF","name":"ifarci-i-pa'in","lat":"37.185","long":"70.493"},"74":{"country":"AF","name":"ifch","lat":"37.591","long":"70.303"},"75":{"country":"AF","name":"ifredz","lat":"36.349","long":"70.056"},"76":{"country":"AF","name":"ifridz","lat":"36.349","long":"70.056"},"77":{"country":"AF","name":"ifriz","lat":"36.349","long":"70.056"},"78":{"country":"AF","name":"ig","lat":"34.074","long":"67.133"},"79":{"country":"AF","name":"igri","lat":"36.083","long":"69.076"},"80":{"country":"AF","name":"igzah","lat":"37.276","long":"69.684"},"81":{"country":"AF","name":"igzukalay","lat":"31.470","long":"67.337"},"82":{"country":"AF","name":"ihl-e qurban","lat":"34.426","long":"66.164"},"83":{"country":"AF","name":"iich","lat":"34.522","long":"64.140"},"84":{"country":"AF","name":"ijan","lat":"32.984","long":"64.125"},"85":{"country":"AF","name":"ijarab","lat":"31.591","long":"65.709"},"86":{"country":"AF","name":"ikbal'khankalay","lat":"31.065","long":"66.430"},"87":{"country":"AF","name":"ikhtiar","lat":"35.854","long":"66.117"},"88":{"country":"AF","name":"ikhtiarkheyl'","lat":"32.300","long":"67.982"},"89":{"country":"AF","name":"ikhtiyardi","lat":"34.493","long":"64.901"},"90":{"country":"AF","name":"ikhtiyar khel","lat":"32.300","long":"67.982"},"91":{"country":"AF","name":"ikhtyaro","lat":"33.650","long":"66.584"},"92":{"country":"AF","name":"ikrak","lat":"32.530","long":"66.677"},"93":{"country":"AF","name":"ikram khel","lat":"34.274","long":"70.048"},"94":{"country":"AF","name":"ila-gholam'ali","lat":"33.707","long":"66.674"},"95":{"country":"AF","name":"ilah gholam 'ali","lat":"33.707","long":"66.674"},"96":{"country":"AF","name":"ilah-ghulam 'ali","lat":"33.707","long":"66.674"},"97":{"country":"AF","name":"ilah","lat":"36.703","long":"70.936"},"98":{"country":"AF","name":"ilah sang","lat":"33.743","long":"66.686"},"99":{"country":"AF","name":"ila","lat":"36.703","long":"70.936"},"100":{"country":"AF","name":"ilakah","lat":"34.314","long":"67.429"},"101":{"country":"AF","name":"ilaka","lat":"34.314","long":"67.429"},"102":{"country":"AF","name":"ilanah","lat":"35.052","long":"71.316"},"103":{"country":"AF","name":"ilana","lat":"35.052","long":"71.316"},"104":{"country":"AF","name":"ilaneh","lat":"35.052","long":"71.316"},"105":{"country":"AF","name":"ilasail'","lat":"34.954","long":"68.200"},"106":{"country":"AF","name":"ilasang","lat":"33.743","long":"66.686"},"107":{"country":"AF","name":"ilaso","lat":"33.964","long":"66.385"},"108":{"country":"AF","name":"ilasu","lat":"34.171","long":"66.087"},"109":{"country":"AF","name":"ilasunak","lat":"33.875","long":"66.104"},"110":{"country":"AF","name":"ilbak","lat":"32.233","long":"66.111"},"111":{"country":"AF","name":"ilbeck","lat":"32.233","long":"66.111"},"112":{"country":"AF","name":"ildodar","lat":"34.737","long":"66.853"},"113":{"country":"AF","name":"ilftow","lat":"36.805","long":"69.761"},"114":{"country":"AF","name":"ilgachi","lat":"36.866","long":"66.784"},"115":{"country":"AF","name":"ilian","lat":"35.263","long":"64.912"},"116":{"country":"AF","name":"ilias khel","lat":"34.400","long":"69.143"},"117":{"country":"AF","name":"ilibakah","lat":"33.829","long":"66.078"},"118":{"country":"AF","name":"ilich","lat":"36.422","long":"69.433"},"119":{"country":"AF","name":"ili-kurban","lat":"34.426","long":"66.164"},"120":{"country":"AF","name":"ilisonau","lat":"34.045","long":"65.963"},"121":{"country":"AF","name":"ilisonow","lat":"34.045","long":"65.963"},"122":{"country":"AF","name":"ilitak","lat":"33.839","long":"66.674"},"123":{"country":"AF","name":"il'kachi-pain","lat":"36.897","long":"66.768"},"124":{"country":"AF","name":"ilkochi-bala","lat":"36.882","long":"66.778"},"125":{"country":"AF","name":"illahabad","lat":"36.727","long":"66.765"},"126":{"country":"AF","name":"ilman-e uchownah","lat":"36.722","long":"66.789"},"127":{"country":"AF","name":"il'mani-uchavna","lat":"36.722","long":"66.789"},"128":{"country":"AF","name":"ilmich","lat":"36.715","long":"70.455"},"129":{"country":"AF","name":"il'muradbay","lat":"36.737","long":"69.398"},"130":{"country":"AF","name":"ilqachi bala","lat":"36.882","long":"66.778"},"131":{"country":"AF","name":"ilqachi","lat":"36.866","long":"66.784"},"132":{"country":"AF","name":"ilqachi pa'in","lat":"36.897","long":"66.768"},"133":{"country":"AF","name":"ilsha'i","lat":"33.863","long":"66.155"},"134":{"country":"AF","name":"iltaz karez","lat":"29.949","long":"66.219"},"135":{"country":"AF","name":"iltaz kariz","lat":"29.949","long":"66.219"},"136":{"country":"AF","name":"ilyan","lat":"35.263","long":"64.912"},"137":{"country":"AF","name":"ilyasabad","lat":"32.163","long":"61.882"},"138":{"country":"AF","name":"ilyas","lat":"33.686","long":"68.181"},"139":{"country":"AF","name":"ilyas khan kala","lat":"33.963","long":"69.026"},"140":{"country":"AF","name":"ilyas khan karez","lat":"33.962","long":"69.017"},"141":{"country":"AF","name":"ilyas khel","lat":"34.400","long":"69.143"},"142":{"country":"AF","name":"il'yaskheyl'","lat":"34.400","long":"69.143"},"143":{"country":"AF","name":"ilyatah","lat":"34.848","long":"65.471"},"144":{"country":"AF","name":"imad","lat":"32.973","long":"67.315"},"145":{"country":"AF","name":"imam rabat","lat":"32.866","long":"64.696"},"146":{"country":"AF","name":"imam ribat","lat":"32.866","long":"64.696"},"147":{"country":"AF","name":"imam robat","lat":"32.866","long":"64.696"},"148":{"country":"AF","name":"imam saheb","lat":"37.188","long":"68.936"},"149":{"country":"AF","name":"imam sahib","lat":"35.891","long":"64.802"},"150":{"country":"AF","name":"imam sahib","lat":"37.188","long":"68.936"},"151":{"country":"AF","name":"imam sahib","lat":"36.661","long":"66.511"},"152":{"country":"AF","name":"imam sahib","lat":"36.426","long":"65.835"},"153":{"country":"AF","name":"imamsakhib","lat":"37.188","long":"68.936"},"154":{"country":"AF","name":"imarai","lat":"31.519","long":"66.389"},"155":{"country":"AF","name":"imarak","lat":"33.918","long":"66.409"},"156":{"country":"AF","name":"imarat","lat":"33.153","long":"62.148"},"157":{"country":"AF","name":"imarat","lat":"31.441","long":"65.576"},"158":{"country":"AF","name":"imarat","lat":"31.519","long":"66.389"},"159":{"country":"AF","name":"imj","lat":"38.014","long":"70.490"},"160":{"country":"AF","name":"imni khel","lat":"33.158","long":"68.798"},"161":{"country":"AF","name":"imni khel","lat":"33.481","long":"69.018"},"162":{"country":"AF","name":"imni kheyl","lat":"33.158","long":"68.798"},"163":{"country":"AF","name":"imnikheyl'","lat":"33.481","long":"69.018"},"164":{"country":"AF","name":"imran dur","lat":"37.413","long":"70.652"},"165":{"country":"AF","name":"imratkheyl'","lat":"34.170","long":"68.509"},"166":{"country":"AF","name":"imtalah","lat":"36.927","long":"70.418"},"167":{"country":"AF","name":"imuk","lat":"36.028","long":"69.771"},"168":{"country":"AF","name":"inak","lat":"33.314","long":"67.499"},"169":{"country":"AF","name":"inal","lat":"35.613","long":"69.066"},"170":{"country":"AF","name":"inam","lat":"34.100","long":"68.898"},"171":{"country":"AF","name":"in'am khel","lat":"32.782","long":"67.789"},"172":{"country":"AF","name":"inamkheyl'","lat":"32.782","long":"67.789"},"173":{"country":"AF","name":"indakbarkalay","lat":"33.275","long":"69.842"},"174":{"country":"AF","name":"indzerai","lat":"34.648","long":"71.036"},"175":{"country":"AF","name":"indzerak","lat":"32.241","long":"66.186"},"176":{"country":"AF","name":"indzeray","lat":"34.532","long":"69.702"},"177":{"country":"AF","name":"indzeray","lat":"34.101","long":"70.783"},"178":{"country":"AF","name":"indzeray","lat":"34.648","long":"71.036"},"179":{"country":"AF","name":"indzer bagh","lat":"32.023","long":"66.078"},"180":{"country":"AF","name":"indzergai","lat":"31.219","long":"66.639"},"181":{"country":"AF","name":"indzergay","lat":"31.825","long":"66.439"},"182":{"country":"AF","name":"indzer gwal","lat":"31.230","long":"66.699"},"183":{"country":"AF","name":"indzeri kelay","lat":"34.520","long":"69.591"},"184":{"country":"AF","name":"indzer","lat":"31.657","long":"67.296"},"185":{"country":"AF","name":"indzerkai","lat":"33.383","long":"69.726"},"186":{"country":"AF","name":"indzer kelay","lat":"34.911","long":"71.001"},"187":{"country":"AF","name":"indzero bandah","lat":"35.065","long":"71.415"},"188":{"country":"AF","name":"indzer payalah","lat":"33.634","long":"70.040"},"189":{"country":"AF","name":"indzharay","lat":"34.101","long":"70.783"},"190":{"country":"AF","name":"indzhar","lat":"32.431","long":"66.941"},"191":{"country":"AF","name":"indzher","lat":"32.355","long":"67.435"},"192":{"country":"AF","name":"indzherkay","lat":"33.383","long":"69.726"},"193":{"country":"AF","name":"indzhirak","lat":"32.241","long":"66.186"},"194":{"country":"AF","name":"indzhiray","lat":"34.532","long":"69.702"},"195":{"country":"AF","name":"indzhirgay","lat":"31.219","long":"66.639"},"196":{"country":"AF","name":"indzhirgay","lat":"32.257","long":"66.714"},"197":{"country":"AF","name":"indzhirgval'","lat":"31.230","long":"66.699"},"198":{"country":"AF","name":"indzhir","lat":"31.657","long":"67.296"},"199":{"country":"AF","name":"indzhirobag","lat":"32.023","long":"66.078"},"200":{"country":"AF","name":"indzhirshali","lat":"32.132","long":"64.666"},"201":{"country":"AF","name":"indzhyerubanda","lat":"35.065","long":"71.415"},"202":{"country":"AF","name":"indziray","lat":"34.532","long":"69.702"},"203":{"country":"AF","name":"ingarak","lat":"32.069","long":"64.657"},"204":{"country":"AF","name":"ingarak","lat":"32.238","long":"65.795"},"205":{"country":"AF","name":"ingardzhangel'","lat":"32.142","long":"64.908"},"206":{"country":"AF","name":"ingertsyan","lat":"31.340","long":"67.328"},"207":{"country":"AF","name":"ingian","lat":"34.868","long":"69.659"},"208":{"country":"AF","name":"ingirch'yan","lat":"31.340","long":"67.328"},"209":{"country":"AF","name":"ingishkah","lat":"36.199","long":"65.869"},"210":{"country":"AF","name":"ingishka","lat":"36.199","long":"65.869"},"211":{"country":"AF","name":"ingiyan","lat":"34.868","long":"69.659"},"212":{"country":"AF","name":"ingyan","lat":"34.868","long":"69.659"},"213":{"country":"AF","name":"inishwak","lat":"34.689","long":"64.928"},"214":{"country":"AF","name":"injar","lat":"37.080","long":"70.461"},"215":{"country":"AF","name":"injar","lat":"31.703","long":"67.543"},"216":{"country":"AF","name":"injil","lat":"34.301","long":"62.246"},"217":{"country":"AF","name":"injin","lat":"36.201","long":"69.870"},"218":{"country":"AF","name":"inow","lat":"37.018","long":"70.140"},"219":{"country":"AF","name":"institut-e tuberkuloz","lat":"34.476","long":"69.118"},"220":{"country":"AF","name":"iolar","lat":"31.442","long":"66.967"},"221":{"country":"AF","name":"iqbal khan kelay","lat":"31.065","long":"66.430"},"222":{"country":"AF","name":"iraghli","lat":"36.749","long":"65.868"},"223":{"country":"AF","name":"iraghli now","lat":"36.764","long":"65.894"},"224":{"country":"AF","name":"irakh","lat":"36.143","long":"70.025"},"225":{"country":"AF","name":"iraki","lat":"31.610","long":"67.568"},"226":{"country":"AF","name":"iraki kelay","lat":"29.926","long":"65.890"},"227":{"country":"AF","name":"iraki-sufla","lat":"34.827","long":"68.041"},"228":{"country":"AF","name":"iraki-ulia","lat":"34.824","long":"68.060"},"229":{"country":"AF","name":"irakli","lat":"36.912","long":"66.030"},"230":{"country":"AF","name":"irakli","lat":"36.242","long":"68.039"},"231":{"country":"AF","name":"irandaz","lat":"31.216","long":"62.183"},"232":{"country":"AF","name":"iran","lat":"31.831","long":"65.068"},"233":{"country":"AF","name":"iraqi","lat":"32.520","long":"66.977"},"234":{"country":"AF","name":"iraqi kelay","lat":"29.926","long":"65.890"},"235":{"country":"AF","name":"irazi","lat":"31.590","long":"65.718"},"236":{"country":"AF","name":"irbolagh","lat":"34.107","long":"67.730"},"237":{"country":"AF","name":"irbulak","lat":"34.107","long":"67.730"},"238":{"country":"AF","name":"ir bulaq","lat":"34.107","long":"67.730"},"239":{"country":"AF","name":"irdad","lat":"34.360","long":"66.274"},"240":{"country":"AF","name":"ird","lat":"32.899","long":"67.261"},"241":{"country":"AF","name":"irgah","lat":"38.382","long":"70.817"},"242":{"country":"AF","name":"irganak","lat":"33.839","long":"67.100"},"243":{"country":"AF","name":"irgi","lat":"33.646","long":"66.940"},"244":{"country":"AF","name":"irgin","lat":"34.380","long":"66.769"},"245":{"country":"AF","name":"irgin","lat":"34.585","long":"67.399"},"246":{"country":"AF","name":"irmah-ye gul koh","lat":"33.266","long":"67.902"},"247":{"country":"AF","name":"irsu","lat":"37.558","long":"70.414"},"248":{"country":"AF","name":"isadaykalay","lat":"31.690","long":"66.867"},"249":{"country":"AF","name":"isagay kalay","lat":"31.690","long":"66.867"},"250":{"country":"AF","name":"'isagay kelay","lat":"31.690","long":"66.867"},"251":{"country":"AF","name":"isakah","lat":"31.514","long":"67.463"},"252":{"country":"AF","name":"isaka","lat":"31.514","long":"67.463"},"253":{"country":"AF","name":"'isa kelay","lat":"31.226","long":"67.101"},"254":{"country":"AF","name":"isa khan","lat":"31.238","long":"62.174"},"255":{"country":"AF","name":"'isa khan","lat":"36.758","long":"68.786"},"256":{"country":"AF","name":"'isa khel gharbi","lat":"32.670","long":"69.128"},"257":{"country":"AF","name":"'isa khel","lat":"32.830","long":"67.842"},"258":{"country":"AF","name":"'isa khel","lat":"33.164","long":"69.760"},"259":{"country":"AF","name":"'isa khel","lat":"34.848","long":"69.662"},"260":{"country":"AF","name":"'isa khel","lat":"35.108","long":"69.281"},"261":{"country":"AF","name":"'isakhel sarqi","lat":"32.689","long":"69.181"},"262":{"country":"AF","name":"'isa khel sharqi","lat":"32.689","long":"69.181"},"263":{"country":"AF","name":"'isakheyl-e gharbi","lat":"32.670","long":"69.128"},"264":{"country":"AF","name":"'isa kheyl-e jonubi","lat":"33.099","long":"68.061"},"265":{"country":"AF","name":"'isakheyl-e sharqi","lat":"32.689","long":"69.181"},"266":{"country":"AF","name":"'isa kheyl-e shomali","lat":"33.142","long":"68.040"},"267":{"country":"AF","name":"isakheyl'-garbi","lat":"32.670","long":"69.128"},"268":{"country":"AF","name":"'isa kheyl","lat":"32.830","long":"67.842"},"269":{"country":"AF","name":"'isa kheyl","lat":"33.164","long":"69.760"},"270":{"country":"AF","name":"isakheyl'","lat":"34.848","long":"69.662"},"271":{"country":"AF","name":"isakheyl'","lat":"35.108","long":"69.281"},"272":{"country":"AF","name":"isakheyl'-sharki","lat":"32.689","long":"69.181"},"273":{"country":"AF","name":"isak kiti","lat":"37.094","long":"70.470"},"274":{"country":"AF","name":"isarah","lat":"34.789","long":"70.953"},"275":{"country":"AF","name":"isara","lat":"34.789","long":"70.953"},"276":{"country":"AF","name":"isarak","lat":"35.077","long":"66.418"},"277":{"country":"AF","name":"isarak","lat":"34.008","long":"69.033"},"278":{"country":"AF","name":"isarak","lat":"36.700","long":"66.858"},"279":{"country":"AF","name":"isaretangi","lat":"34.288","long":"69.274"},"280":{"country":"AF","name":"isari","lat":"37.142","long":"70.524"},"281":{"country":"AF","name":"isar","lat":"34.426","long":"66.235"},"282":{"country":"AF","name":"isar","lat":"34.449","long":"67.302"},"283":{"country":"AF","name":"isar","lat":"33.668","long":"66.607"},"284":{"country":"AF","name":"isba'i","lat":"35.664","long":"65.285"},"285":{"country":"AF","name":"isfagan","lat":"36.898","long":"66.976"},"286":{"country":"AF","name":"isfahan","lat":"36.898","long":"66.976"},"287":{"country":"AF","name":"isfandiar","lat":"32.723","long":"66.644"},"288":{"country":"AF","name":"isfand'yar","lat":"32.723","long":"66.644"},"289":{"country":"AF","name":"isfanj","lat":"36.416","long":"69.556"},"290":{"country":"AF","name":"isfarnah","lat":"33.463","long":"63.955"},"291":{"country":"AF","name":"isfarz","lat":"34.343","long":"63.567"},"292":{"country":"AF","name":"isfaur","lat":"33.332","long":"64.194"},"293":{"country":"AF","name":"isfinij","lat":"33.722","long":"63.546"},"294":{"country":"AF","name":"isfowr","lat":"33.332","long":"64.194"},"295":{"country":"AF","name":"ishaba'i","lat":"35.664","long":"65.285"},"296":{"country":"AF","name":"ishagzay","lat":"31.758","long":"66.704"},"297":{"country":"AF","name":"ishakchi","lat":"36.469","long":"69.183"},"298":{"country":"AF","name":"ishakkheyl'","lat":"33.766","long":"68.565"},"299":{"country":"AF","name":"ishak kiti","lat":"37.094","long":"70.470"},"300":{"country":"AF","name":"ishakzi","lat":"32.642","long":"65.594"},"301":{"country":"AF","name":"ishakzikalay","lat":"31.821","long":"67.406"},"302":{"country":"AF","name":"ishana","lat":"36.663","long":"70.181"},"303":{"country":"AF","name":"ishanan","lat":"36.718","long":"69.596"},"304":{"country":"AF","name":"ishanha","lat":"35.216","long":"67.768"},"305":{"country":"AF","name":"ishan kala","lat":"32.734","long":"67.726"},"306":{"country":"AF","name":"ishankyshlak","lat":"36.712","long":"69.491"},"307":{"country":"AF","name":"ishan qeshlaq","lat":"36.712","long":"69.491"},"308":{"country":"AF","name":"ishantob","lat":"36.647","long":"69.057"},"309":{"country":"AF","name":"ishan top","lat":"36.647","long":"69.057"},"310":{"country":"AF","name":"ishan tup","lat":"37.186","long":"69.004"},"311":{"country":"AF","name":"ishaq khel","lat":"33.766","long":"68.565"},"312":{"country":"AF","name":"ishaqzai","lat":"32.642","long":"65.594"},"313":{"country":"AF","name":"ishaqzai kelay","lat":"31.821","long":"67.406"},"314":{"country":"AF","name":"ishaqzi","lat":"31.850","long":"66.390"},"315":{"country":"AF","name":"ishaqzi kelay","lat":"31.821","long":"67.406"},"316":{"country":"AF","name":"isharah","lat":"34.879","long":"71.169"},"317":{"country":"AF","name":"ishar","lat":"34.426","long":"66.235"},"318":{"country":"AF","name":"ishar","lat":"34.449","long":"67.302"},"319":{"country":"AF","name":"ishar","lat":"33.668","long":"66.607"},"320":{"country":"AF","name":"ishba'i","lat":"35.664","long":"65.285"},"321":{"country":"AF","name":"ishim","lat":"36.046","long":"64.846"},"322":{"country":"AF","name":"ishkabad","lat":"31.650","long":"65.072"},"323":{"country":"AF","name":"ishkabad","lat":"35.125","long":"69.244"},"324":{"country":"AF","name":"ishkamesh","lat":"36.379","long":"69.323"},"325":{"country":"AF","name":"ishkamish","lat":"36.706","long":"71.570"},"326":{"country":"AF","name":"ishkamish","lat":"36.379","long":"69.323"},"327":{"country":"AF","name":"ishkamosh","lat":"34.776","long":"70.480"},"328":{"country":"AF","name":"ishkamysh","lat":"36.379","long":"69.323"},"329":{"country":"AF","name":"ishkanak","lat":"30.234","long":"62.177"},"330":{"country":"AF","name":"ishkari","lat":"33.201","long":"67.449"},"331":{"country":"AF","name":"ishkashan","lat":"37.216","long":"70.385"},"332":{"country":"AF","name":"ishkashem","lat":"36.706","long":"71.570"},"333":{"country":"AF","name":"ishkashim","lat":"36.706","long":"71.570"},"334":{"country":"AF","name":"ishkashim post","lat":"36.706","long":"71.570"},"335":{"country":"AF","name":"ishkili","lat":"37.191","long":"69.033"},"336":{"country":"AF","name":"ishlan","lat":"34.105","long":"63.603"},"337":{"country":"AF","name":"ishmara","lat":"36.982","long":"72.410"},"338":{"country":"AF","name":"ishmarg","lat":"36.982","long":"72.410"},"339":{"country":"AF","name":"ishmorgh","lat":"36.982","long":"72.410"},"340":{"country":"AF","name":"ishmurgh","lat":"36.982","long":"72.410"},"341":{"country":"AF","name":"ishnava","lat":"35.061","long":"69.714"},"342":{"country":"AF","name":"ishnawah","lat":"35.061","long":"69.714"},"343":{"country":"AF","name":"ishpishan","lat":"33.393","long":"65.816"},"344":{"country":"AF","name":"ishpola maidan","lat":"36.788","long":"66.928"},"345":{"country":"AF","name":"ishpola meydan","lat":"36.788","long":"66.928"},"346":{"country":"AF","name":"ishpulah maidan","lat":"36.788","long":"66.928"},"347":{"country":"AF","name":"ishpulamaydan","lat":"36.788","long":"66.928"},"348":{"country":"AF","name":"ishpushtah","lat":"33.882","long":"66.485"},"349":{"country":"AF","name":"ishpushta","lat":"35.298","long":"68.094"},"350":{"country":"AF","name":"'ishqabad","lat":"31.650","long":"65.072"},"351":{"country":"AF","name":"'ishqabad","lat":"35.125","long":"69.244"},"352":{"country":"AF","name":"ishtabad","lat":"33.353","long":"62.261"},"353":{"country":"AF","name":"ishtakan","lat":"36.952","long":"71.026"},"354":{"country":"AF","name":"ishtivi","lat":"35.456","long":"70.938"},"355":{"country":"AF","name":"ishtiwi","lat":"35.456","long":"70.938"},"356":{"country":"AF","name":"ishtragh","lat":"36.673","long":"71.731"},"357":{"country":"AF","name":"ishtu","lat":"33.678","long":"66.993"},"358":{"country":"AF","name":"ishturkhusp","lat":"33.656","long":"64.327"},"359":{"country":"AF","name":"ishturmurda","lat":"34.759","long":"68.817"},"360":{"country":"AF","name":"ishturshahr","lat":"35.010","long":"68.937"},"361":{"country":"AF","name":"ishturshar","lat":"35.010","long":"68.937"},"362":{"country":"AF","name":"'isi kelay","lat":"31.226","long":"67.101"},"363":{"country":"AF","name":"isi khel","lat":"32.001","long":"67.683"},"364":{"country":"AF","name":"isi kheyl","lat":"32.001","long":"67.683"},"365":{"country":"AF","name":"isiki-bala","lat":"34.729","long":"69.121"},"366":{"country":"AF","name":"isiki-pain","lat":"34.741","long":"69.117"},"367":{"country":"AF","name":"isik","lat":"37.002","long":"73.330"},"368":{"country":"AF","name":"isiqi bala","lat":"34.729","long":"69.121"},"369":{"country":"AF","name":"isiqi pa'in","lat":"34.741","long":"69.117"},"370":{"country":"AF","name":"isiqi-ye bala","lat":"34.729","long":"69.121"},"371":{"country":"AF","name":"isiqi-ye pa'in","lat":"34.741","long":"69.117"},"372":{"country":"AF","name":"iskader","lat":"31.496","long":"67.458"},"373":{"country":"AF","name":"iskah","lat":"34.463","long":"67.971"},"374":{"country":"AF","name":"iska","lat":"34.463","long":"67.971"},"375":{"country":"AF","name":"iskam darah","lat":"34.828","long":"69.520"},"376":{"country":"AF","name":"iskamdara","lat":"34.828","long":"69.520"},"377":{"country":"AF","name":"iskames","lat":"36.379","long":"69.323"},"378":{"country":"AF","name":"iskanak","lat":"30.234","long":"62.177"},"379":{"country":"AF","name":"iskan darah","lat":"34.847","long":"69.485"},"380":{"country":"AF","name":"iskandara","lat":"34.847","long":"69.485"},"381":{"country":"AF","name":"iskandar","lat":"31.496","long":"67.458"},"382":{"country":"AF","name":"iskando","lat":"35.140","long":"70.176"},"383":{"country":"AF","name":"iskandu","lat":"35.140","long":"70.176"},"384":{"country":"AF","name":"iskan","lat":"36.638","long":"70.855"},"385":{"country":"AF","name":"iskan","lat":"33.723","long":"66.794"},"386":{"country":"AF","name":"iskarchah-ye gharbi","lat":"33.332","long":"64.686"},"387":{"country":"AF","name":"iskarchayi-garbi","lat":"33.332","long":"64.686"},"388":{"country":"AF","name":"iskar","lat":"35.554","long":"68.523"},"389":{"country":"AF","name":"iskasan","lat":"37.216","long":"70.385"},"390":{"country":"AF","name":"iskasem","lat":"36.706","long":"71.570"},"391":{"country":"AF","name":"iskatel","lat":"36.413","long":"71.271"},"392":{"country":"AF","name":"iskatul","lat":"36.413","long":"71.271"},"393":{"country":"AF","name":"iskaucha","lat":"33.374","long":"64.805"},"394":{"country":"AF","name":"iskauchayi-ulia","lat":"33.345","long":"64.729"},"395":{"country":"AF","name":"iskaychak","lat":"34.213","long":"64.484"},"396":{"country":"AF","name":"iskaych","lat":"34.200","long":"64.307"},"397":{"country":"AF","name":"iskechak","lat":"34.213","long":"64.484"},"398":{"country":"AF","name":"iskech","lat":"34.200","long":"64.307"},"399":{"country":"AF","name":"iskhakzay","lat":"31.758","long":"66.704"},"400":{"country":"AF","name":"iskhakzi","lat":"31.850","long":"66.390"},"401":{"country":"AF","name":"iskhar","lat":"31.330","long":"67.341"},"402":{"country":"AF","name":"iskher","lat":"31.330","long":"67.341"},"403":{"country":"AF","name":"iskhir","lat":"31.356","long":"67.328"},"404":{"country":"AF","name":"iskichah","lat":"34.614","long":"64.888"},"405":{"country":"AF","name":"iskichak","lat":"33.395","long":"65.002"},"406":{"country":"AF","name":"iskichi","lat":"34.690","long":"64.850"},"407":{"country":"AF","name":"iskili","lat":"37.191","long":"69.033"},"408":{"country":"AF","name":"iskin'ya","lat":"35.038","long":"69.612"},"409":{"country":"AF","name":"iskowchah","lat":"33.374","long":"64.805"},"410":{"country":"AF","name":"iskowchah-ye 'ulya","lat":"33.345","long":"64.729"},"411":{"country":"AF","name":"iskowun","lat":"33.956","long":"63.658"},"412":{"country":"AF","name":"islamabad","lat":"34.753","long":"70.102"},"413":{"country":"AF","name":"islam 'ali","lat":"34.311","long":"62.153"},"414":{"country":"AF","name":"islam aq maidan","lat":"36.956","long":"66.006"},"415":{"country":"AF","name":"islam chomgar","lat":"37.301","long":"66.461"},"416":{"country":"AF","name":"islam chumgar","lat":"37.301","long":"66.461"},"417":{"country":"AF","name":"islam darah","lat":"36.186","long":"69.219"},"418":{"country":"AF","name":"islam ghuarah","lat":"32.799","long":"65.015"},"419":{"country":"AF","name":"islamguara","lat":"32.799","long":"65.015"},"420":{"country":"AF","name":"islam","lat":"36.976","long":"66.677"},"421":{"country":"AF","name":"islam kala","lat":"36.221","long":"64.860"},"422":{"country":"AF","name":"islam kala","lat":"34.666","long":"61.066"},"423":{"country":"AF","name":"islamkala","lat":"34.495","long":"68.947"},"424":{"country":"AF","name":"islamkala","lat":"34.779","long":"69.462"},"425":{"country":"AF","name":"islam khel","lat":"33.718","long":"68.258"},"426":{"country":"AF","name":"islam khel","lat":"33.477","long":"69.045"},"427":{"country":"AF","name":"islamkheyl'","lat":"33.477","long":"69.045"},"428":{"country":"AF","name":"islam killa","lat":"34.666","long":"61.066"},"429":{"country":"AF","name":"islam kot","lat":"34.572","long":"69.717"},"430":{"country":"AF","name":"islam kot kelay","lat":"34.572","long":"69.717"},"431":{"country":"AF","name":"islam pinjah","lat":"37.295","long":"66.338"},"432":{"country":"AF","name":"islam pinja","lat":"37.295","long":"66.338"},"433":{"country":"AF","name":"islam pur","lat":"34.587","long":"70.628"},"434":{"country":"AF","name":"islam qal'ah","lat":"34.779","long":"69.462"},"435":{"country":"AF","name":"islam qal'ah","lat":"34.666","long":"61.066"},"436":{"country":"AF","name":"islam qal'ah","lat":"34.495","long":"68.947"},"437":{"country":"AF","name":"islam-qala","lat":"36.221","long":"64.860"},"438":{"country":"AF","name":"islam qala","lat":"34.666","long":"61.066"},"439":{"country":"AF","name":"islam tawarabaf","lat":"37.043","long":"66.233"},"440":{"country":"AF","name":"islam towarabaf","lat":"37.043","long":"66.233"},"441":{"country":"AF","name":"ismaal'kheyl'","lat":"33.271","long":"69.778"},"442":{"country":"AF","name":"isma'il gul kor","lat":"32.962","long":"69.195"},"443":{"country":"AF","name":"isma'il gul kur","lat":"32.962","long":"69.195"},"444":{"country":"AF","name":"isma'il","lat":"35.882","long":"66.492"},"445":{"country":"AF","name":"isma'il","lat":"37.133","long":"68.966"},"446":{"country":"AF","name":"ismailkalay","lat":"32.179","long":"66.484"},"447":{"country":"AF","name":"isma'il karez","lat":"31.449","long":"65.720"},"448":{"country":"AF","name":"isma'il kelay","lat":"32.179","long":"66.484"},"449":{"country":"AF","name":"ismail khayl","lat":"36.562","long":"67.713"},"450":{"country":"AF","name":"isma'il khel","lat":"34.627","long":"69.485"},"451":{"country":"AF","name":"isma'il khel","lat":"33.271","long":"69.778"},"452":{"country":"AF","name":"ismailkheyl'","lat":"33.144","long":"69.086"},"453":{"country":"AF","name":"ismailkheyl'","lat":"34.627","long":"69.485"},"454":{"country":"AF","name":"ismailkyshlak","lat":"37.173","long":"68.985"},"455":{"country":"AF","name":"isma'il qeslaq","lat":"37.173","long":"68.985"},"456":{"country":"AF","name":"isma'il qishlaq","lat":"37.173","long":"68.985"},"457":{"country":"AF","name":"'ismatak","lat":"35.546","long":"65.967"},"458":{"country":"AF","name":"ismay sangelakh","lat":"36.688","long":"69.544"},"459":{"country":"AF","name":"ismay sanglakh","lat":"36.688","long":"69.544"},"460":{"country":"AF","name":"ismiyah","lat":"35.064","long":"64.122"},"461":{"country":"AF","name":"ismullah","lat":"34.812","long":"69.087"},"462":{"country":"AF","name":"ismulla","lat":"34.812","long":"69.087"},"463":{"country":"AF","name":"ismurgh","lat":"36.982","long":"72.410"},"464":{"country":"AF","name":"'isokhel samali","lat":"33.142","long":"68.040"},"465":{"country":"AF","name":"ispagan","lat":"34.210","long":"62.113"},"466":{"country":"AF","name":"ispaghan","lat":"34.210","long":"62.113"},"467":{"country":"AF","name":"ispal","lat":"36.130","long":"70.025"},"468":{"country":"AF","name":"ispandak","lat":"35.513","long":"68.927"},"469":{"country":"AF","name":"ispandi","lat":"33.473","long":"68.398"},"470":{"country":"AF","name":"ispan sai","lat":"36.417","long":"66.935"},"471":{"country":"AF","name":"ispan say","lat":"36.417","long":"66.935"},"472":{"country":"AF","name":"isparf","lat":"35.007","long":"65.800"},"473":{"country":"AF","name":"ispargak","lat":"33.895","long":"65.743"},"474":{"country":"AF","name":"isparman","lat":"33.631","long":"64.129"},"475":{"country":"AF","name":"ispereg","lat":"34.657","long":"66.348"},"476":{"country":"AF","name":"ispey lakzar","lat":"34.889","long":"68.888"},"477":{"country":"AF","name":"ispgardu","lat":"33.305","long":"67.880"},"478":{"country":"AF","name":"ispian","lat":"36.135","long":"69.683"},"479":{"country":"AF","name":"ispia sang","lat":"33.428","long":"63.709"},"480":{"country":"AF","name":"ispi bayd-e sufla","lat":"34.316","long":"66.028"},"481":{"country":"AF","name":"ispi bayd-e 'ulya","lat":"34.322","long":"66.011"},"482":{"country":"AF","name":"ispi bayd","lat":"34.358","long":"66.439"},"483":{"country":"AF","name":"ispibed","lat":"34.358","long":"66.439"},"484":{"country":"AF","name":"ispibed","lat":"34.383","long":"68.019"},"485":{"country":"AF","name":"ispibedi-sufla","lat":"34.316","long":"66.028"},"486":{"country":"AF","name":"ispibedi-ulia","lat":"34.322","long":"66.011"},"487":{"country":"AF","name":"ispibuz","lat":"33.622","long":"65.387"},"488":{"country":"AF","name":"ispichan","lat":"33.896","long":"66.463"},"489":{"country":"AF","name":"ispi daywal","lat":"34.476","long":"66.457"},"490":{"country":"AF","name":"ispideval'","lat":"34.476","long":"66.457"},"491":{"country":"AF","name":"ispigh","lat":"34.980","long":"64.619"},"492":{"country":"AF","name":"ispi","lat":"33.243","long":"69.565"},"493":{"country":"AF","name":"ispikala","lat":"34.332","long":"67.746"},"494":{"country":"AF","name":"ispilan","lat":"35.151","long":"64.951"},"495":{"country":"AF","name":"ispin kai","lat":"36.787","long":"66.658"},"496":{"country":"AF","name":"ispin kay","lat":"36.787","long":"66.658"},"497":{"country":"AF","name":"ispipah","lat":"33.423","long":"63.403"},"498":{"country":"AF","name":"ispipa","lat":"33.423","long":"63.403"},"499":{"country":"AF","name":"ispiri","lat":"35.149","long":"64.550"},"500":{"country":"AF","name":"ispisang-e bala","lat":"34.578","long":"64.746"},"501":{"country":"AF","name":"ispisang","lat":"34.590","long":"64.732"},"502":{"country":"AF","name":"ispi sang","lat":"34.297","long":"66.085"},"503":{"country":"AF","name":"ispi sang","lat":"34.396","long":"67.573"},"504":{"country":"AF","name":"ispizau","lat":"34.141","long":"64.341"},"505":{"country":"AF","name":"ispizaw","lat":"34.141","long":"64.341"},"506":{"country":"AF","name":"ispok","lat":"33.793","long":"66.817"},"507":{"country":"AF","name":"ispuk","lat":"33.796","long":"66.609"},"508":{"country":"AF","name":"israk","lat":"33.869","long":"67.279"},"509":{"country":"AF","name":"issik","lat":"37.002","long":"73.330"},"510":{"country":"AF","name":"istajik","lat":"33.594","long":"66.098"},"511":{"country":"AF","name":"istakan","lat":"36.952","long":"71.026"},"512":{"country":"AF","name":"istak","lat":"34.114","long":"66.656"},"513":{"country":"AF","name":"istalef","lat":"34.832","long":"69.077"},"514":{"country":"AF","name":"istalif","lat":"34.832","long":"69.077"},"515":{"country":"AF","name":"istanah","lat":"33.833","long":"63.993"},"516":{"country":"AF","name":"istarab","lat":"34.032","long":"67.075"},"517":{"country":"AF","name":"istarbuz","lat":"32.992","long":"64.227"},"518":{"country":"AF","name":"istavan","lat":"33.297","long":"64.373"},"519":{"country":"AF","name":"istavay","lat":"32.690","long":"69.145"},"520":{"country":"AF","name":"istawi","lat":"33.148","long":"63.929"},"521":{"country":"AF","name":"istaychah","lat":"35.246","long":"69.433"},"522":{"country":"AF","name":"istaycha","lat":"35.246","long":"69.433"},"523":{"country":"AF","name":"istech","lat":"36.494","long":"71.315"},"524":{"country":"AF","name":"istec","lat":"36.494","long":"71.315"},"525":{"country":"AF","name":"isterb","lat":"36.821","long":"71.053"},"526":{"country":"AF","name":"istich","lat":"36.494","long":"71.315"},"527":{"country":"AF","name":"istilif","lat":"34.832","long":"69.077"},"528":{"country":"AF","name":"istirb","lat":"36.821","long":"71.053"},"529":{"country":"AF","name":"istoi","lat":"31.996","long":"63.151"},"530":{"country":"AF","name":"istorgatz","lat":"35.403","long":"71.586"},"531":{"country":"AF","name":"istowan","lat":"33.297","long":"64.373"},"532":{"country":"AF","name":"istoway","lat":"31.996","long":"63.151"},"533":{"country":"AF","name":"istoway","lat":"32.690","long":"69.145"},"534":{"country":"AF","name":"istowi","lat":"33.148","long":"63.929"},"535":{"country":"AF","name":"istrat","lat":"35.403","long":"71.586"},"536":{"country":"AF","name":"istrav","lat":"34.281","long":"62.025"},"537":{"country":"AF","name":"istrow","lat":"34.281","long":"62.025"},"538":{"country":"AF","name":"isturak","lat":"33.747","long":"66.958"},"539":{"country":"AF","name":"iswasabast","lat":"34.180","long":"63.434"},"540":{"country":"AF","name":"itarchi-ye bala","lat":"37.163","long":"70.478"},"541":{"country":"AF","name":"itarchi-ye pa'in","lat":"37.185","long":"70.493"},"542":{"country":"AF","name":"itarci-i-bala","lat":"37.163","long":"70.478"},"543":{"country":"AF","name":"iti","lat":"31.010","long":"66.219"},"544":{"country":"AF","name":"ito","lat":"32.508","long":"65.837"},"545":{"country":"AF","name":"itomak","lat":"35.772","long":"67.324"},"546":{"country":"AF","name":"itroy-e bala","lat":"36.140","long":"70.216"},"547":{"country":"AF","name":"itroy-e pa'in","lat":"36.146","long":"70.208"},"548":{"country":"AF","name":"ival'bul'dy","lat":"36.902","long":"66.674"},"549":{"country":"AF","name":"ivazkheyl'","lat":"33.379","long":"69.320"},"550":{"country":"AF","name":"iwal buldi","lat":"36.902","long":"66.674"},"551":{"country":"AF","name":"iwaz","lat":"34.357","long":"66.236"},"552":{"country":"AF","name":"'iwaz khan kelay","lat":"33.660","long":"68.765"},"553":{"country":"AF","name":"'iwaz khel","lat":"33.379","long":"69.320"},"554":{"country":"AF","name":"iwdan","lat":"38.385","long":"71.101"},"555":{"country":"AF","name":"iwinak","lat":"37.046","long":"71.233"},"556":{"country":"AF","name":"izabad","lat":"31.648","long":"65.049"},"557":{"country":"AF","name":"izahayi","lat":"32.781","long":"69.089"},"558":{"country":"AF","name":"izah'i","lat":"32.781","long":"69.089"},"559":{"country":"AF","name":"izai","lat":"32.781","long":"69.089"},"560":{"country":"AF","name":"'izat kala","lat":"32.787","long":"67.802"},"561":{"country":"AF","name":"'izat khel","lat":"35.136","long":"69.293"},"562":{"country":"AF","name":"izdakhan","lat":"33.840","long":"64.439"},"563":{"country":"AF","name":"izghilak","lat":"34.538","long":"61.993"},"564":{"country":"AF","name":"izgumay","lat":"31.462","long":"67.095"},"565":{"country":"AF","name":"izhda khan","lat":"33.840","long":"64.439"},"566":{"country":"AF","name":"izib khel","lat":"32.271","long":"67.671"},"567":{"country":"AF","name":"izib kheyl","lat":"32.271","long":"67.671"},"568":{"country":"AF","name":"izir","lat":"34.786","long":"65.350"},"569":{"country":"AF","name":"izkalay","lat":"32.145","long":"67.339"},"570":{"country":"AF","name":"izmat","lat":"32.604","long":"67.551"},"571":{"country":"AF","name":"izriah","lat":"35.478","long":"69.752"},"572":{"country":"AF","name":"izria","lat":"35.478","long":"69.752"},"573":{"country":"AF","name":"izriw","lat":"37.050","long":"71.221"},"574":{"country":"AF","name":"izwan","lat":"37.075","long":"71.137"},"575":{"country":"AF","name":"izzatkala","lat":"32.787","long":"67.802"},"576":{"country":"AF","name":"izzatkheyl'","lat":"35.136","long":"69.293"},"577":{"country":"AI","name":"island harbour","lat":"18.25","long":"-63.0"},"578":{"country":"AL","name":"iba e poshtme","lat":"41.237","long":"19.940"},"579":{"country":"AL","name":"ibalja","lat":"42.187","long":"20.002"},"580":{"country":"AL","name":"iballe","lat":"42.187","long":"20.002"},"581":{"country":"AL","name":"iballja","lat":"42.187","long":"20.002"},"582":{"country":"AL","name":"iballje","lat":"42.187","long":"20.002"},"583":{"country":"AL","name":"ibe e postme","lat":"41.237","long":"19.940"},"584":{"country":"AL","name":"ibe e siperme","lat":"41.233","long":"19.933"},"585":{"country":"AL","name":"ibe","lat":"41.233","long":"19.933"},"586":{"country":"AL","name":"idrizaj","lat":"40.935","long":"19.904"},"587":{"country":"AL","name":"ihkumiza","lat":"41.063","long":"19.917"},"588":{"country":"AL","name":"ikinas","lat":"40.324","long":"20.600"},"589":{"country":"AL","name":"iliari","lat":"40.157","long":"20.498"},"590":{"country":"AL","name":"iliar","lat":"40.157","long":"20.498"},"591":{"country":"AL","name":"iliar munushtiri","lat":"40.183","long":"20.483"},"592":{"country":"AL","name":"iliar munushtir","lat":"40.157","long":"20.498"},"593":{"country":"AL","name":"iliasi","lat":"40.142","long":"19.671"},"594":{"country":"AL","name":"ilias","lat":"40.142","long":"19.671"},"595":{"country":"AL","name":"ilirasi","lat":"40.384","long":"19.9"},"596":{"country":"AL","name":"iliras","lat":"40.384","long":"19.9"},"597":{"country":"AL","name":"iljare","lat":"40.157","long":"20.498"},"598":{"country":"AL","name":"iljare-munushtir","lat":"40.183","long":"20.483"},"599":{"country":"AL","name":"iljari","lat":"40.157","long":"20.498"},"600":{"country":"AL","name":"iljar","lat":"40.157","long":"20.498"},"601":{"country":"AL","name":"iljar munushtiri","lat":"40.157","long":"20.498"},"602":{"country":"AL","name":"iljas","lat":"40.142","long":"19.671"},"603":{"country":"AL","name":"iljias","lat":"40.142","long":"19.671"},"604":{"country":"AL","name":"illjar","lat":"40.157","long":"20.498"},"605":{"country":"AL","name":"ilnece","lat":"41.656","long":"20.484"},"606":{"country":"AL","name":"ilnica","lat":"41.656","long":"20.484"},"607":{"country":"AL","name":"ilnice","lat":"41.656","long":"20.484"},"608":{"country":"AL","name":"ilnojca","lat":"41.656","long":"20.484"},"609":{"country":"AL","name":"ilyara","lat":"40.157","long":"20.498"},"610":{"country":"AL","name":"imara","lat":"40.101","long":"19.744"},"611":{"country":"AL","name":"imer efendi","lat":"39.864","long":"20.11"},"612":{"country":"AL","name":"imer ell","lat":"39.864","long":"20.11"},"613":{"country":"AL","name":"imshta","lat":"40.795","long":"19.677"},"614":{"country":"AL","name":"imshta-sheqi","lat":"40.789","long":"19.696"},"615":{"country":"AL","name":"imshte","lat":"40.795","long":"19.677"},"616":{"country":"AL","name":"imshte-sheq","lat":"40.789","long":"19.696"},"617":{"country":"AL","name":"imshti","lat":"40.789","long":"19.696"},"618":{"country":"AL","name":"imsht","lat":"40.789","long":"19.696"},"619":{"country":"AL","name":"imsht-sheqi","lat":"40.789","long":"19.696"},"620":{"country":"AL","name":"imst","lat":"40.795","long":"19.677"},"621":{"country":"AL","name":"ioranisht","lat":"40.958","long":"20.260"},"622":{"country":"AL","name":"irmanji","lat":"40.863","long":"20.082"},"623":{"country":"AL","name":"irmanj","lat":"40.863","long":"20.082"},"624":{"country":"AL","name":"irmathi","lat":"40.819","long":"20.385"},"625":{"country":"AL","name":"irmath","lat":"40.819","long":"20.385"},"626":{"country":"AL","name":"irmath verca","lat":"40.819","long":"20.385"},"627":{"country":"AL","name":"irmi","lat":"40.151","long":"19.638"},"628":{"country":"AL","name":"irmotha","lat":"41.466","long":"19.565"},"629":{"country":"AL","name":"irseku","lat":"41.346","long":"19.748"},"630":{"country":"AL","name":"isakasi","lat":"40.765","long":"20.049"},"631":{"country":"AL","name":"isakas","lat":"40.765","long":"20.049"},"632":{"country":"AL","name":"isgari","lat":"40.243","long":"20.483"},"633":{"country":"AL","name":"ishefai","lat":"42.206","long":"20.271"},"634":{"country":"AL","name":"ishefaj","lat":"42.206","long":"20.271"},"635":{"country":"AL","name":"ishem","lat":"41.545","long":"19.6"},"636":{"country":"AL","name":"ishmi","lat":"41.545","long":"19.6"},"637":{"country":"AL","name":"ishm","lat":"41.545","long":"19.6"},"638":{"country":"AL","name":"ishulli i lezhes","lat":"41.769","long":"19.643"},"639":{"country":"AL","name":"ishulli i shenjinit","lat":"41.768","long":"19.629"},"640":{"country":"AL","name":"ishulli","lat":"41.783","long":"19.650"},"641":{"country":"AL","name":"ishull i leshet","lat":"41.769","long":"19.643"},"642":{"country":"AL","name":"ishull i leshit","lat":"41.769","long":"19.643"},"643":{"country":"AL","name":"ishull i lezhes","lat":"41.769","long":"19.643"},"644":{"country":"AL","name":"ishull i shengjinit","lat":"41.768","long":"19.629"},"645":{"country":"AL","name":"ishull i shengjintt","lat":"41.768","long":"19.629"},"646":{"country":"AL","name":"ishull","lat":"41.783","long":"19.650"},"647":{"country":"AL","name":"ishull-leshet","lat":"41.769","long":"19.643"},"648":{"country":"AL","name":"ishull-lezha","lat":"41.769","long":"19.643"},"649":{"country":"AL","name":"ishull-lezhe","lat":"41.769","long":"19.643"},"650":{"country":"AL","name":"ishull-shengjini","lat":"41.768","long":"19.629"},"651":{"country":"AL","name":"ishull-shengjin","lat":"41.768","long":"19.629"},"652":{"country":"AL","name":"isqari","lat":"40.243","long":"20.483"},"653":{"country":"AL","name":"istrore","lat":"40.538","long":"20.175"},"654":{"country":"AL","name":"isuf-mucaj","lat":"41.21","long":"19.823"},"655":{"country":"AL","name":"isufmucani","lat":"41.21","long":"19.823"},"656":{"country":"AL","name":"isufmucan","lat":"41.21","long":"19.823"},"657":{"country":"AL","name":"isul i leset","lat":"41.769","long":"19.643"},"658":{"country":"AL","name":"ivanaj","lat":"42.285","long":"19.437"},"659":{"country":"AL","name":"iviragne","lat":"41.734","long":"20.426"},"660":{"country":"AL","name":"izberisa","lat":"41.324","long":"19.770"},"661":{"country":"AL","name":"izgara","lat":"40.243","long":"20.483"},"662":{"country":"AL","name":"izgari","lat":"40.243","long":"20.483"},"663":{"country":"AL","name":"izgar","lat":"40.243","long":"20.483"},"664":{"country":"AL","name":"izgoralce","lat":"40.234","long":"20.536"},"665":{"country":"AL","name":"izgoralec","lat":"40.234","long":"20.536"},"666":{"country":"AL","name":"izvice","lat":"40.637","long":"19.972"},"667":{"country":"AL","name":"izviri","lat":"41.476","long":"20.454"},"668":{"country":"AL","name":"izvir","lat":"41.476","long":"20.454"},"669":{"country":"AL","name":"izvori","lat":"40.450","long":"19.957"},"670":{"country":"AL","name":"izvor","lat":"40.325","long":"19.51"},"671":{"country":"AM","name":"ibish","lat":"40.983","long":"43.65"},"672":{"country":"AM","name":"idzhevan","lat":"40.875","long":"45.149"},"673":{"country":"AM","name":"iejmiatsin","lat":"40.172","long":"44.292"},"674":{"country":"AM","name":"igdalu","lat":"40.040","long":"44.067"},"675":{"country":"AM","name":"ijevan","lat":"40.875","long":"45.149"},"676":{"country":"AM","name":"ilanchalan","lat":"40.393","long":"44.381"},"677":{"country":"AM","name":"ilanli","lat":"41.046","long":"43.776"},"678":{"country":"AM","name":"ilanly","lat":"41.046","long":"43.776"},"679":{"country":"AM","name":"ilkhiabi","lat":"40.7","long":"43.9"},"680":{"country":"AM","name":"illi","lat":"40.916","long":"43.816"},"681":{"country":"AM","name":"illi karakilisa","lat":"40.916","long":"43.816"},"682":{"country":"AM","name":"illmazlu","lat":"41.141","long":"44.174"},"683":{"country":"AM","name":"ilmazlu","lat":"41.141","long":"44.174"},"684":{"country":"AM","name":"imanshalu","lat":"40.02","long":"44.491"},"685":{"country":"AM","name":"imeni beriya","lat":"40.184","long":"44.459"},"686":{"country":"AM","name":"imeni dzerzhinskogo","lat":"40.083","long":"44.0"},"687":{"country":"AM","name":"imeni kalinina","lat":"40.023","long":"44.424"},"688":{"country":"AM","name":"imeni kirova","lat":"39.915","long":"44.600"},"689":{"country":"AM","name":"imeni mikoyana","lat":"40.175","long":"44.018"},"690":{"country":"AM","name":"imeni shaumyana","lat":"40.184","long":"44.459"},"691":{"country":"AM","name":"imeni stalina","lat":"40.05","long":"43.966"},"692":{"country":"AM","name":"imeni tairova","lat":"40.183","long":"44.483"},"693":{"country":"AM","name":"imeni voroshilova","lat":"40.164","long":"43.940"},"694":{"country":"AM","name":"imeni zhdanova","lat":"40.161","long":"44.088"},"695":{"country":"AM","name":"imrkhan","lat":"40.67","long":"43.866"},"696":{"country":"AM","name":"imrlu","lat":"40.574","long":"44.454"},"697":{"country":"AM","name":"inakdag","lat":"40.233","long":"45.85"},"698":{"country":"AM","name":"inaklu","lat":"40.35","long":"44.266"},"699":{"country":"AM","name":"inchevar","lat":"39.255","long":"46.439"},"700":{"country":"AM","name":"indzhevar","lat":"39.255","long":"46.439"},"701":{"country":"AM","name":"injevar","lat":"39.255","long":"46.439"},"702":{"country":"AM","name":"ipakli","lat":"40.108","long":"44.414"},"703":{"country":"AM","name":"ipakly","lat":"40.108","long":"44.414"},"704":{"country":"AM","name":"iravan","lat":"40.181","long":"44.513"},"705":{"country":"AM","name":"irimis","lat":"39.461","long":"46.102"},"706":{"country":"AM","name":"irind","lat":"40.383","long":"43.983"},"707":{"country":"AM","name":"isaakyan","lat":"40.616","long":"43.725"},"708":{"country":"AM","name":"isahakian","lat":"40.616","long":"43.725"},"709":{"country":"AM","name":"isahakyan","lat":"40.616","long":"43.725"},"710":{"country":"AM","name":"isharandi","lat":"40.914","long":"45.072"},"711":{"country":"AM","name":"ishkanasar","lat":"39.56","long":"46.043"},"712":{"country":"AM","name":"istibulagh","lat":"40.875","long":"45.149"},"713":{"country":"AM","name":"itkran","lat":"39.544","long":"45.416"},"714":{"country":"AM","name":"itsakar","lat":"40.866","long":"45.3"},"715":{"country":"AN","name":"industrie","lat":"18.033","long":"-63.06"},"716":{"country":"AN","name":"ishiri","lat":"12.133","long":"-68.23"},"717":{"country":"AO","name":"iabe","lat":"-5.7","long":"12.216"},"718":{"country":"AO","name":"iai","lat":"-11.26","long":"14.35"},"719":{"country":"AO","name":"ialala","lat":"-7.993","long":"15.763"},"720":{"country":"AO","name":"ialama","lat":"-6.552","long":"14.878"},"721":{"country":"AO","name":"ialamo","lat":"-7.231","long":"15.892"},"722":{"country":"AO","name":"iale","lat":"-6.283","long":"14.783"},"723":{"country":"AO","name":"ialema","lat":"-6.016","long":"14.983"},"724":{"country":"AO","name":"ialo","lat":"-6.283","long":"14.783"},"725":{"country":"AO","name":"iambaca","lat":"-14.4","long":"21.65"},"726":{"country":"AO","name":"iamba ia uica","lat":"-9.673","long":"19.154"},"727":{"country":"AO","name":"ianama","lat":"-6.433","long":"14.633"},"728":{"country":"AO","name":"ianama primeiro","lat":"-6.552","long":"14.878"},"729":{"country":"AO","name":"ianama segundo","lat":"-6.561","long":"14.870"},"730":{"country":"AO","name":"ianda","lat":"-9.083","long":"15.866"},"731":{"country":"AO","name":"iandelela","lat":"-11.53","long":"16.566"},"732":{"country":"AO","name":"ianga","lat":"-6.166","long":"14.766"},"733":{"country":"AO","name":"iango ia colo","lat":"-8.055","long":"16.250"},"734":{"country":"AO","name":"iango","lat":"-9.206","long":"17.748"},"735":{"country":"AO","name":"iangongola","lat":"-13.23","long":"19.433"},"736":{"country":"AO","name":"iangue","lat":"-12.19","long":"14.870"},"737":{"country":"AO","name":"ianguila","lat":"-6.018","long":"15.017"},"738":{"country":"AO","name":"iaonga","lat":"-14.03","long":"17.45"},"739":{"country":"AO","name":"iava do cuima","lat":"-13.19","long":"15.288"},"740":{"country":"AO","name":"iava","lat":"-13.19","long":"15.288"},"741":{"country":"AO","name":"ibango","lat":"-7.316","long":"14.933"},"742":{"country":"AO","name":"ibendua","lat":"-8.546","long":"13.520"},"743":{"country":"AO","name":"icanga","lat":"-8.983","long":"14.928"},"744":{"country":"AO","name":"icasa","lat":"-5.116","long":"12.183"},"745":{"country":"AO","name":"icaso","lat":"-5.116","long":"12.183"},"746":{"country":"AO","name":"ichatena","lat":"-14.9","long":"14.416"},"747":{"country":"AO","name":"icoba","lat":"-5.066","long":"12.316"},"748":{"country":"AO","name":"icoca","lat":"-6.199","long":"16.195"},"749":{"country":"AO","name":"ico","lat":"-11.78","long":"14.15"},"750":{"country":"AO","name":"icolo","lat":"-11.51","long":"17.466"},"751":{"country":"AO","name":"icomiangol","lat":"-11.24","long":"14.274"},"752":{"country":"AO","name":"icongula","lat":"-7.693","long":"21.331"},"753":{"country":"AO","name":"icuco","lat":"-11.15","long":"14.349"},"754":{"country":"AO","name":"icunga","lat":"-10.1","long":"15.833"},"755":{"country":"AO","name":"ide","lat":"-6.333","long":"14.766"},"756":{"country":"AO","name":"ieca","lat":"-6.033","long":"14.483"},"757":{"country":"AO","name":"iecombe","lat":"-11.63","long":"14.896"},"758":{"country":"AO","name":"iema","lat":"-5.733","long":"12.283"},"759":{"country":"AO","name":"iemba","lat":"-7.925","long":"15.526"},"760":{"country":"AO","name":"iembe","lat":"-8.257","long":"13.343"},"761":{"country":"AO","name":"iembo","lat":"-6.647","long":"15.065"},"762":{"country":"AO","name":"iena","lat":"-6.183","long":"13.433"},"763":{"country":"AO","name":"ienga","lat":"-6.774","long":"13.553"},"764":{"country":"AO","name":"iengui","lat":"-8.279","long":"16.192"},"765":{"country":"AO","name":"ierco","lat":"-12.56","long":"14.45"},"766":{"country":"AO","name":"ikoka","lat":"-6.199","long":"16.195"},"767":{"country":"AO","name":"ilha dos amores","lat":"-12.46","long":"15.5"},"768":{"country":"AO","name":"ilosa","lat":"-11.7","long":"23.65"},"769":{"country":"AO","name":"iloza","lat":"-11.7","long":"23.65"},"770":{"country":"AO","name":"imaculada conceicao","lat":"-10.84","long":"15.587"},"771":{"country":"AO","name":"imaculada","lat":"-11.96","long":"15.8"},"772":{"country":"AO","name":"ima","lat":"-6.883","long":"14.3"},"773":{"country":"AO","name":"imambambe","lat":"-7.916","long":"14.716"},"774":{"country":"AO","name":"imbala ndumbi","lat":"-11.75","long":"14.893"},"775":{"country":"AO","name":"imbando","lat":"-10.77","long":"14.366"},"776":{"country":"AO","name":"imbe","lat":"-8.937","long":"17.652"},"777":{"country":"AO","name":"imbi","lat":"-8.937","long":"17.652"},"778":{"country":"AO","name":"imbirique","lat":"-12.61","long":"13.927"},"779":{"country":"AO","name":"imbobu","lat":"-12.47","long":"13.970"},"780":{"country":"AO","name":"imbocal","lat":"-11.49","long":"17.059"},"781":{"country":"AO","name":"imbocole","lat":"-11.49","long":"17.059"},"782":{"country":"AO","name":"imbocolo","lat":"-11.49","long":"17.059"},"783":{"country":"AO","name":"imbondeiro","lat":"-9.082","long":"15.675"},"784":{"country":"AO","name":"imbondeiro","lat":"-7.162","long":"15.075"},"785":{"country":"AO","name":"imbundo","lat":"-8.813","long":"15.213"},"786":{"country":"AO","name":"imbundo","lat":"-8.676","long":"14.360"},"787":{"country":"AO","name":"imbungo","lat":"-12.31","long":"13.838"},"788":{"country":"AO","name":"imbuta","lat":"-10.75","long":"16.233"},"789":{"country":"AO","name":"imombo","lat":"-6.083","long":"16.1"},"790":{"country":"AO","name":"impanga","lat":"-6.393","long":"12.441"},"791":{"country":"AO","name":"impela da camarata","lat":"-11.34","long":"14.319"},"792":{"country":"AO","name":"impela","lat":"-11.34","long":"14.319"},"793":{"country":"AO","name":"impula","lat":"-13.9","long":"13.683"},"794":{"country":"AO","name":"impule","lat":"-13.9","long":"13.683"},"795":{"country":"AO","name":"impulo","lat":"-13.9","long":"13.683"},"796":{"country":"AO","name":"inacio","lat":"-9.433","long":"16.133"},"797":{"country":"AO","name":"ina","lat":"-6.883","long":"14.3"},"798":{"country":"AO","name":"inamagando","lat":"-14.05","long":"12.4"},"799":{"country":"AO","name":"inamangando","lat":"-14.05","long":"12.4"},"800":{"country":"AO","name":"inanica","lat":"-4.85","long":"12.4"},"801":{"country":"AO","name":"incha","lat":"-15.18","long":"16.766"},"802":{"country":"AO","name":"incoche","lat":"-4.85","long":"12.4"},"803":{"country":"AO","name":"inconcom","lat":"-11.41","long":"14.284"},"804":{"country":"AO","name":"inda","lat":"-6.05","long":"15.216"},"805":{"country":"AO","name":"inda","lat":"-8.016","long":"14.1"},"806":{"country":"AO","name":"indioma","lat":"-5.5","long":"12.3"},"807":{"country":"AO","name":"indungo","lat":"-14.82","long":"16.260"},"808":{"country":"AO","name":"inga","lat":"-7.4","long":"14.383"},"809":{"country":"AO","name":"ingandola","lat":"-11.39","long":"14.308"},"810":{"country":"AO","name":"ingleso","lat":"-5.466","long":"12.516"},"811":{"country":"AO","name":"inglezo","lat":"-5.466","long":"12.516"},"812":{"country":"AO","name":"ingo","lat":"-6.4","long":"14.283"},"813":{"country":"AO","name":"ingongolo","lat":"-11.35","long":"14.277"},"814":{"country":"AO","name":"ingongom","lat":"-11.41","long":"14.284"},"815":{"country":"AO","name":"ingue","lat":"-11.1","long":"14.35"},"816":{"country":"AO","name":"ingueva","lat":"-12.00","long":"16.019"},"817":{"country":"AO","name":"inguri","lat":"-12.03","long":"14.534"},"818":{"country":"AO","name":"inguza","lat":"-16.7","long":"22.35"},"819":{"country":"AO","name":"inhacalenga","lat":"-12.93","long":"23.566"},"820":{"country":"AO","name":"inhacalunga","lat":"-11.45","long":"20.656"},"821":{"country":"AO","name":"inhacatolo","lat":"-11.53","long":"23.016"},"822":{"country":"AO","name":"inhaculunga","lat":"-11.45","long":"20.656"},"823":{"country":"AO","name":"inhambarra","lat":"-11.61","long":"23.316"},"824":{"country":"AO","name":"inhamo","lat":"-12.93","long":"18.766"},"825":{"country":"AO","name":"inhamuana","lat":"-12.11","long":"22.75"},"826":{"country":"AO","name":"inhamulumbo","lat":"-12.7","long":"22.383"},"827":{"country":"AO","name":"inhangana","lat":"-18","long":"20.866"},"828":{"country":"AO","name":"inhanha","lat":"-12.46","long":"14.867"},"829":{"country":"AO","name":"inhani","lat":"-12.56","long":"15.216"},"830":{"country":"AO","name":"inhoca","lat":"-4.85","long":"12.4"},"831":{"country":"AO","name":"inhuca","lat":"-4.85","long":"12.4"},"832":{"country":"AO","name":"inogue","lat":"-11.80","long":"14.666"},"833":{"country":"AO","name":"insumacose","lat":"-13.5","long":"19.516"},"834":{"country":"AO","name":"inyakalenga","lat":"-12.93","long":"23.566"},"835":{"country":"AO","name":"iobe","lat":"-12.56","long":"14.033"},"836":{"country":"AO","name":"ioca","lat":"-6.199","long":"16.195"},"837":{"country":"AO","name":"iocola","lat":"-6.449","long":"14.976"},"838":{"country":"AO","name":"iocombambo","lat":"-14.62","long":"13.228"},"839":{"country":"AO","name":"iombaca","lat":"-14.4","long":"21.65"},"840":{"country":"AO","name":"iona","lat":"-16.9","long":"12.583"},"841":{"country":"AO","name":"ionama","lat":"-12.58","long":"14.1"},"842":{"country":"AO","name":"ionde","lat":"-7.956","long":"21.352"},"843":{"country":"AO","name":"iondueje","lat":"-9.095","long":"21.116"},"844":{"country":"AO","name":"ionga","lat":"-6.15","long":"15.066"},"845":{"country":"AO","name":"iongo","lat":"-5.966","long":"13.316"},"846":{"country":"AO","name":"iongo","lat":"-9.206","long":"17.748"},"847":{"country":"AO","name":"iongola","lat":"-11.13","long":"15.151"},"848":{"country":"AO","name":"ipanambungo","lat":"-6.683","long":"15.85"},"849":{"country":"AO","name":"ipanga","lat":"-6.393","long":"12.441"},"850":{"country":"AO","name":"ipela do galo","lat":"-11.34","long":"14.319"},"851":{"country":"AO","name":"ipela do ngalo","lat":"-11.34","long":"14.319"},"852":{"country":"AO","name":"ipela","lat":"-11.73","long":"14.509"},"853":{"country":"AO","name":"ipombo","lat":"-10.58","long":"14.028"},"854":{"country":"AO","name":"iponda","lat":"-10.82","long":"13.840"},"855":{"country":"AO","name":"ipumba","lat":"-10.75","long":"14.201"},"856":{"country":"AO","name":"iquacu","lat":"-10.81","long":"13.840"},"857":{"country":"AO","name":"iramba","lat":"-12.63","long":"14.916"},"858":{"country":"AO","name":"irimbo","lat":"-8.022","long":"16.868"},"859":{"country":"AO","name":"iringa","lat":"-8.831","long":"18.244"},"860":{"country":"AO","name":"isaac","lat":"-10.93","long":"20.206"},"861":{"country":"AO","name":"israel","lat":"-10.32","long":"15.012"},"862":{"country":"AO","name":"issingue","lat":"-12.60","long":"13.823"},"863":{"country":"AO","name":"issosse","lat":"-12.06","long":"17.55"},"864":{"country":"AO","name":"issuco","lat":"-12.01","long":"13.933"},"865":{"country":"AO","name":"itanda","lat":"-7.343","long":"21.643"},"866":{"country":"AO","name":"itende","lat":"-12.66","long":"14.033"},"867":{"country":"AO","name":"itengo","lat":"-9.208","long":"20.467"},"868":{"country":"AO","name":"itesingue","lat":"-6.187","long":"16.103"},"869":{"country":"AO","name":"itom","lat":"-12.42","long":"13.818"},"870":{"country":"AO","name":"itopo","lat":"-8.898","long":"20.411"},"871":{"country":"AO","name":"itoto","lat":"-6.05","long":"16.166"},"872":{"country":"AO","name":"ituca","lat":"-14.26","long":"17.116"},"873":{"country":"AO","name":"itula","lat":"-10.8","long":"15.8"},"874":{"country":"AO","name":"itumba","lat":"-5.716","long":"12.333"},"875":{"country":"AO","name":"itumbo","lat":"-11.29","long":"14.374"},"876":{"country":"AO","name":"iua caveza","lat":"-11.58","long":"21.216"},"877":{"country":"AO","name":"iualia","lat":"-11.4","long":"14.05"},"878":{"country":"AO","name":"iumbe","lat":"-12.06","long":"15.15"},"879":{"country":"AO","name":"ivongue","lat":"-15.65","long":"17.4"},"880":{"country":"AO","name":"izidro","lat":"-10.85","long":"14.410"},"881":{"country":"AR","name":"ibahay","lat":"-27.51","long":"-57.40"},"882":{"country":"AR","name":"ibanez","lat":"-36.03","long":"-58.60"},"883":{"country":"AR","name":"ibarlucea","lat":"-32.84","long":"-60.79"},"884":{"country":"AR","name":"ibarreta","lat":"-25.21","long":"-59.85"},"885":{"country":"AR","name":"ibicuy","lat":"-33.74","long":"-59.15"},"886":{"country":"AR","name":"icano","lat":"-28.91","long":"-65.32"},"887":{"country":"AR","name":"icano","lat":"-28.67","long":"-62.88"},"888":{"country":"AR","name":"i casanova","lat":"-34.69","long":"-58.59"},"889":{"country":"AR","name":"ichigualasto","lat":"-30.08","long":"-67.94"},"890":{"country":"AR","name":"ichipuca","lat":"-28.33","long":"-65.16"},"891":{"country":"AR","name":"ichipuca","lat":"-27.53","long":"-65.36"},"892":{"country":"AR","name":"i correas","lat":"-35.03","long":"-57.85"},"893":{"country":"AR","name":"ideazabal","lat":"-32.81","long":"-63.03"},"894":{"country":"AR","name":"idiazabal","lat":"-32.81","long":"-63.03"},"895":{"country":"AR","name":"ifran","lat":"-29.08","long":"-58.97"},"896":{"country":"AR","name":"igarzabal","lat":"-39.76","long":"-62.61"},"897":{"country":"AR","name":"iglesia","lat":"-30.41","long":"-69.22"},"898":{"country":"AR","name":"iglesia vieja","lat":"-30.66","long":"-65.26"},"899":{"country":"AR","name":"ignacio correas","lat":"-35.03","long":"-57.85"},"900":{"country":"AR","name":"iguassu","lat":"-25.60","long":"-54.57"},"901":{"country":"AR","name":"iguazu","lat":"-25.60","long":"-54.57"},"902":{"country":"AR","name":"ilario ascasubi","lat":"-39.37","long":"-62.64"},"903":{"country":"AR","name":"ilisca","lat":"-30.97","long":"-66.75"},"904":{"country":"AR","name":"iloga","lat":"-28.39","long":"-65.39"},"905":{"country":"AR","name":"impira","lat":"-31.78","long":"-63.66"},"906":{"country":"AR","name":"incahuasi","lat":"-25.43","long":"-67.20"},"907":{"country":"AR","name":"incahuasi","lat":"-24.33","long":"-65.98"},"908":{"country":"AR","name":"indacochea","lat":"-35.05","long":"-60.06"},"909":{"country":"AR","name":"independencia","lat":"-31.62","long":"-68.31"},"910":{"country":"AR","name":"independencia","lat":"-29.36","long":"-61.73"},"911":{"country":"AR","name":"indio rico","lat":"-38.33","long":"-60.88"},"912":{"country":"AR","name":"ines indart","lat":"-34.39","long":"-60.53"},"913":{"country":"AR","name":"infanson","lat":"-28.57","long":"-65.40"},"914":{"country":"AR","name":"infanzon","lat":"-28.57","long":"-65.40"},"915":{"country":"AR","name":"ingas","lat":"-27.44","long":"-65.34"},"916":{"country":"AR","name":"ingeniero balbin","lat":"-34.58","long":"-62.17"},"917":{"country":"AR","name":"ingeniero balloffet","lat":"-34.73","long":"-68.36"},"918":{"country":"AR","name":"ingeniero barbet","lat":"-26.98","long":"-59.46"},"919":{"country":"AR","name":"ingeniero beaugey","lat":"-35.5","long":"-62.23"},"920":{"country":"AR","name":"ingeniero budge","lat":"-34.71","long":"-58.45"},"921":{"country":"AR","name":"ingeniero chanourdie","lat":"-28.77","long":"-59.53"},"922":{"country":"AR","name":"ingeniero de madrid","lat":"-35.48","long":"-60.45"},"923":{"country":"AR","name":"ingeniero eh faure","lat":"-23.96","long":"-61.71"},"924":{"country":"AR","name":"ingeniero enrique h faure","lat":"-23.96","long":"-61.71"},"925":{"country":"AR","name":"ingeniero ezcurra","lat":"-27.94","long":"-64.22"},"926":{"country":"AR","name":"ingeniero foster","lat":"-35.70","long":"-65.10"},"927":{"country":"AR","name":"ingeniero g andre","lat":"-32.69","long":"-68.32"},"928":{"country":"AR","name":"ingeniero giagnoni","lat":"-33.11","long":"-68.41"},"929":{"country":"AR","name":"ingeniero gn juarez","lat":"-23.9","long":"-61.85"},"930":{"country":"AR","name":"ingeniero guillermo n juarez","lat":"-23.9","long":"-61.85"},"931":{"country":"AR","name":"ingeniero gustavo andre","lat":"-32.69","long":"-68.32"},"932":{"country":"AR","name":"ingeniero huergo","lat":"-39.08","long":"-67.23"},"933":{"country":"AR","name":"ingeniero jacobacci","lat":"-41.34","long":"-69.54"},"934":{"country":"AR","name":"ingeniero j allan","lat":"-34.86","long":"-58.19"},"935":{"country":"AR","name":"ingeniero juarez","lat":"-23.9","long":"-61.85"},"936":{"country":"AR","name":"ingeniero la huergo","lat":"-39.08","long":"-67.23"},"937":{"country":"AR","name":"ingeniero luiggi","lat":"-35.38","long":"-64.46"},"938":{"country":"AR","name":"ingeniero luis a huergo","lat":"-39.08","long":"-67.23"},"939":{"country":"AR","name":"ingeniero malmen","lat":"-34.77","long":"-64.81"},"940":{"country":"AR","name":"ingeniero maschwitz","lat":"-34.38","long":"-58.73"},"941":{"country":"AR","name":"ingeniero maury","lat":"-24.66","long":"-65.75"},"942":{"country":"AR","name":"ingeniero miguel sajaroff","lat":"-31.95","long":"-58.85"},"943":{"country":"AR","name":"ingeniero moneta","lat":"-33.93","long":"-59.74"},"944":{"country":"AR","name":"ingeniero m sajaroff","lat":"-31.95","long":"-58.85"},"945":{"country":"AR","name":"ingeniero o krause","lat":"-39.10","long":"-66.99"},"946":{"country":"AR","name":"ingeniero otamendi","lat":"-34.23","long":"-58.86"},"947":{"country":"AR","name":"ingeniero otto krause","lat":"-39.10","long":"-66.99"},"948":{"country":"AR","name":"ingeniero palavecini","lat":"-46.3","long":"-71.73"},"949":{"country":"AR","name":"ingeniero palavicini","lat":"-46.3","long":"-71.73"},"950":{"country":"AR","name":"ingeniero pallaviccini","lat":"-46.3","long":"-71.73"},"951":{"country":"AR","name":"ingeniero pallavicini","lat":"-46.3","long":"-71.73"},"952":{"country":"AR","name":"ingeniero pallavieini","lat":"-46.3","long":"-71.73"},"953":{"country":"AR","name":"ingeniero romulo otamendi","lat":"-34.23","long":"-58.86"},"954":{"country":"AR","name":"ingeniero silveira","lat":"-34.52","long":"-60.19"},"955":{"country":"AR","name":"ingeniero silveyra","lat":"-34.52","long":"-60.19"},"956":{"country":"AR","name":"ingeniero thompson","lat":"-36.61","long":"-62.91"},"957":{"country":"AR","name":"ingeniero white","lat":"-38.78","long":"-62.26"},"958":{"country":"AR","name":"ingeniero williams","lat":"-34.9","long":"-59.36"},"959":{"country":"AR","name":"ingenio amalia","lat":"-26.86","long":"-65.20"},"960":{"country":"AR","name":"ingenio concepcion","lat":"-26.84","long":"-65.14"},"961":{"country":"AR","name":"ingenio cruz alta","lat":"-26.88","long":"-65.10"},"962":{"country":"AR","name":"ingenio la corona","lat":"-27.35","long":"-65.60"},"963":{"country":"AR","name":"ingenio la esperanza","lat":"-24.22","long":"-64.83"},"964":{"country":"AR","name":"ingenio la florida","lat":"-26.8","long":"-65.1"},"965":{"country":"AR","name":"ingenio la fronterita","lat":"-27.03","long":"-65.45"},"966":{"country":"AR","name":"ingenio la invernada","lat":"-27.63","long":"-65.57"},"967":{"country":"AR","name":"ingenio la providencia","lat":"-27.26","long":"-65.56"},"968":{"country":"AR","name":"ingenio lastenia","lat":"-26.86","long":"-65.14"},"969":{"country":"AR","name":"ingenio la trinidad","lat":"-27.41","long":"-65.51"},"970":{"country":"AR","name":"ingenio ledesma","lat":"-23.83","long":"-64.76"},"971":{"country":"AR","name":"ingenio lules","lat":"-26.90","long":"-65.33"},"972":{"country":"AR","name":"ingenio nueva baviera","lat":"-27.07","long":"-65.39"},"973":{"country":"AR","name":"ingenio primer correntino","lat":"-27.43","long":"-58.62"},"974":{"country":"AR","name":"ingenio san jose","lat":"-26.78","long":"-65.23"},"975":{"country":"AR","name":"ingenio san juan","lat":"-26.85","long":"-65.15"},"976":{"country":"AR","name":"ingenio san miguel","lat":"-26.91","long":"-65.11"},"977":{"country":"AR","name":"ingenio san pablo","lat":"-26.9","long":"-65.31"},"978":{"country":"AR","name":"ingenio santa ana","lat":"-27.47","long":"-65.68"},"979":{"country":"AR","name":"ingenio santa lucia","lat":"-27.09","long":"-65.53"},"980":{"country":"AR","name":"inocencio sosa","lat":"-35.71","long":"-62.10"},"981":{"country":"AR","name":"inriville","lat":"-32.94","long":"-62.23"},"982":{"country":"AR","name":"intendente alvear","lat":"-35.23","long":"-63.59"},"983":{"country":"AR","name":"inti cancha","lat":"-22.15","long":"-65.3"},"984":{"country":"AR","name":"intiguasi","lat":"-30.41","long":"-64.21"},"985":{"country":"AR","name":"inti huasi","lat":"-30.41","long":"-64.21"},"986":{"country":"AR","name":"intiyaco","lat":"-28.67","long":"-60.07"},"987":{"country":"AR","name":"invernada de itacaruare","lat":"-27.81","long":"-55.3"},"988":{"country":"AR","name":"invernadas","lat":"-36.95","long":"-57.21"},"989":{"country":"AR","name":"invernada vieja","lat":"-36.83","long":"-70.68"},"990":{"country":"AR","name":"ipisca","lat":"-28.85","long":"-65.56"},"991":{"country":"AR","name":"ipizca","lat":"-28.85","long":"-65.56"},"992":{"country":"AR","name":"i portela","lat":"-33.97","long":"-59.67"},"993":{"country":"AR","name":"iraizoz","lat":"-38.13","long":"-57.98"},"994":{"country":"AR","name":"irala","lat":"-34.77","long":"-60.69"},"995":{"country":"AR","name":"iraola","lat":"-37.25","long":"-58.91"},"996":{"country":"AR","name":"irazusta","lat":"-32.92","long":"-58.95"},"997":{"country":"AR","name":"irene","lat":"-38.55","long":"-60.69"},"998":{"country":"AR","name":"ireneo portela","lat":"-33.97","long":"-59.67"},"999":{"country":"AR","name":"iriarte","lat":"-34.41","long":"-61.92"},"1000":{"country":"AR","name":"irigoyen","lat":"-32.15","long":"-61.10"},"1001":{"country":"AR","name":"iriondo","lat":"-31.31","long":"-60.75"},"1002":{"country":"AR","name":"iruya","lat":"-22.76","long":"-65.23"},"1003":{"country":"AR","name":"isabel victoria","lat":"-29.11","long":"-59.09"},"1004":{"country":"AR","name":"isca yacu","lat":"-27.02","long":"-64.60"},"1005":{"country":"AR","name":"ischilin","lat":"-30.58","long":"-64.36"},"1006":{"country":"AR","name":"ischilin viejo","lat":"-30.60","long":"-64.34"},"1007":{"country":"AR","name":"isidro casanova","lat":"-34.69","long":"-58.59"},"1008":{"country":"AR","name":"isla baja","lat":"-29.04","long":"-62.33"},"1009":{"country":"AR","name":"isla de los castillos","lat":"-27.53","long":"-64.88"},"1010":{"country":"AR","name":"isla de los sotelo","lat":"-27.47","long":"-64.68"},"1011":{"country":"AR","name":"isla demarchi","lat":"-34.61","long":"-58.35"},"1012":{"country":"AR","name":"isla de san antonio","lat":"-30.02","long":"-64.41"},"1013":{"country":"AR","name":"isla san antonio","lat":"-30.02","long":"-64.41"},"1014":{"country":"AR","name":"islas","lat":"-35.56","long":"-60.35"},"1015":{"country":"AR","name":"isla verde","lat":"-33.24","long":"-62.40"},"1016":{"country":"AR","name":"isla verde","lat":"-28.65","long":"-64.15"},"1017":{"country":"AR","name":"ismiango","lat":"-29.05","long":"-66.98"},"1018":{"country":"AR","name":"isoqui","lat":"-29.1","long":"-56.66"},"1019":{"country":"AR","name":"i sosa","lat":"-35.71","long":"-62.10"},"1020":{"country":"AR","name":"isthilart","lat":"-31.18","long":"-57.96"},"1021":{"country":"AR","name":"itacaruare","lat":"-27.87","long":"-55.26"},"1022":{"country":"AR","name":"ita cora","lat":"-28.90","long":"-58.15"},"1023":{"country":"AR","name":"ita ibate","lat":"-27.42","long":"-57.33"},"1024":{"country":"AR","name":"italbate","lat":"-27.42","long":"-57.33"},"1025":{"country":"AR","name":"italo","lat":"-34.79","long":"-63.78"},"1026":{"country":"AR","name":"itati","lat":"-27.27","long":"-58.24"},"1027":{"country":"AR","name":"ite-ibata","lat":"-27.42","long":"-57.33"},"1028":{"country":"AR","name":"itin","lat":"-27.48","long":"-61.32"},"1029":{"country":"AR","name":"iturbe","lat":"-22.98","long":"-65.35"},"1030":{"country":"AR","name":"iturraspe","lat":"-32.42","long":"-61.78"},"1031":{"country":"AR","name":"iturregui","lat":"-36.83","long":"-61.13"},"1032":{"country":"AR","name":"ituzaingo","lat":"-34.65","long":"-58.65"},"1033":{"country":"AR","name":"ituzaingo","lat":"-27.58","long":"-56.68"},"1034":{"country":"AT","name":"ibbs","lat":"48.166","long":"15.083"},"1035":{"country":"AT","name":"ibertsberg","lat":"47.918","long":"13.064"},"1036":{"country":"AT","name":"ibm","lat":"48.066","long":"12.966"},"1037":{"country":"AT","name":"idolsberg","lat":"48.583","long":"15.483"},"1038":{"country":"AT","name":"igelschwang","lat":"48.15","long":"14.7"},"1039":{"country":"AT","name":"iglbach","lat":"48.5","long":"14.033"},"1040":{"country":"AT","name":"iglsbach","lat":"47.4","long":"13.316"},"1041":{"country":"AT","name":"igls","lat":"47.233","long":"11.416"},"1042":{"country":"AT","name":"ilgenberg","lat":"47.45","long":"14.15"},"1043":{"country":"AT","name":"illensdorf","lat":"47.183","long":"15.866"},"1044":{"country":"AT","name":"illmanns","lat":"48.983","long":"15.1"},"1045":{"country":"AT","name":"illmau","lat":"48.933","long":"15.233"},"1046":{"country":"AT","name":"illmitzen","lat":"46.633","long":"14.916"},"1047":{"country":"AT","name":"illmitz","lat":"47.75","long":"16.8"},"1048":{"country":"AT","name":"ilz","lat":"47.083","long":"15.916"},"1049":{"country":"AT","name":"imbach","lat":"48.45","long":"15.583"},"1050":{"country":"AT","name":"imberg","lat":"48.276","long":"14.268"},"1051":{"country":"AT","name":"im brand","lat":"47.016","long":"11"},"1052":{"country":"AT","name":"im dorfl","lat":"47.2","long":"14.2"},"1053":{"country":"AT","name":"im groret","lat":"48.165","long":"16.459"},"1054":{"country":"AT","name":"im holzl","lat":"48.421","long":"14.307"},"1055":{"country":"AT","name":"iming","lat":"48.1","long":"13.75"},"1056":{"country":"AT","name":"imlau","lat":"47.466","long":"13.183"},"1057":{"country":"AT","name":"immendorf","lat":"48.633","long":"16.116"},"1058":{"country":"AT","name":"immenschlag","lat":"48.866","long":"15.216"},"1059":{"country":"AT","name":"imming","lat":"47.383","long":"11.85"},"1060":{"country":"AT","name":"imolkam","lat":"48.233","long":"13.3"},"1061":{"country":"AT","name":"imsterau","lat":"47.2","long":"10.7"},"1062":{"country":"AT","name":"imsterberg","lat":"47.216","long":"10.7"},"1063":{"country":"AT","name":"imst","lat":"47.233","long":"10.733"},"1064":{"country":"AT","name":"in den kocheln","lat":"48.56","long":"16.024"},"1065":{"country":"AT","name":"in der aue","lat":"47.216","long":"15.6"},"1066":{"country":"AT","name":"in der au","lat":"48.366","long":"16.216"},"1067":{"country":"AT","name":"in der au","lat":"48.474","long":"14.227"},"1068":{"country":"AT","name":"in der mantscha","lat":"47.016","long":"15.366"},"1069":{"country":"AT","name":"inder stelzing","lat":"46.933","long":"14.65"},"1070":{"country":"AT","name":"inding","lat":"48.4","long":"13.55"},"1071":{"country":"AT","name":"industriezone sud","lat":"48.066","long":"16.316"},"1072":{"country":"AT","name":"ingelsberg","lat":"47.366","long":"12.683"},"1073":{"country":"AT","name":"ingering ii","lat":"47.266","long":"14.683"},"1074":{"country":"AT","name":"ingering","lat":"47.266","long":"14.683"},"1075":{"country":"AT","name":"ingering zwei","lat":"47.266","long":"14.683"},"1076":{"country":"AT","name":"ingerl","lat":"46.8","long":"15.833"},"1077":{"country":"AT","name":"ingling","lat":"48.55","long":"13.433"},"1078":{"country":"AT","name":"ingolsthal","lat":"47","long":"14.266"},"1079":{"country":"AT","name":"inkersdorf","lat":"48.433","long":"16"},"1080":{"country":"AT","name":"innenschlag","lat":"48.583","long":"14.1"},"1081":{"country":"AT","name":"inneraigen","lat":"47.55","long":"16.05"},"1082":{"country":"AT","name":"inneralpbach","lat":"47.383","long":"11.95"},"1083":{"country":"AT","name":"innerbartholomaberg","lat":"47.1","long":"9.95"},"1084":{"country":"AT","name":"innerberg","lat":"47.15","long":"11.783"},"1085":{"country":"AT","name":"innerberg","lat":"47.1","long":"9.95"},"1086":{"country":"AT","name":"innerboden","lat":"47.083","long":"9.8833"},"1087":{"country":"AT","name":"innerbraz","lat":"47.15","long":"9.9166"},"1088":{"country":"AT","name":"inner city","lat":"48.216","long":"16.366"},"1089":{"country":"AT","name":"innerdorf","lat":"47.15","long":"10.516"},"1090":{"country":"AT","name":"innere einode","lat":"46.716","long":"13.816"},"1091":{"country":"AT","name":"innere fessnach","lat":"47.15","long":"14.45"},"1092":{"country":"AT","name":"innere grossrotte","lat":"46.916","long":"12.333"},"1093":{"country":"AT","name":"innere lassnitz","lat":"47.066","long":"14.166"},"1094":{"country":"AT","name":"innerellbogen","lat":"47.166","long":"11.45"},"1095":{"country":"AT","name":"innere ragnitz","lat":"47.083","long":"15.5"},"1096":{"country":"AT","name":"innerer sonnberg","lat":"47.516","long":"14.416"},"1097":{"country":"AT","name":"inneres kaltenegg","lat":"47.516","long":"15.8"},"1098":{"country":"AT","name":"innere stadt","lat":"48.216","long":"16.366"},"1099":{"country":"AT","name":"innere wimitz","lat":"46.816","long":"14.233"},"1100":{"country":"AT","name":"innerfahrafeld","lat":"47.933","long":"15.6"},"1101":{"country":"AT","name":"innerfragant","lat":"46.965","long":"13.058"},"1102":{"country":"AT","name":"innerfurth","lat":"48.116","long":"15.916"},"1103":{"country":"AT","name":"innergosta","lat":"46.983","long":"10.016"},"1104":{"country":"AT","name":"innergosten","lat":"46.983","long":"10.016"},"1105":{"country":"AT","name":"innergschloss","lat":"47.116","long":"12.45"},"1106":{"country":"AT","name":"innergschwend","lat":"47.5","long":"10.533"},"1107":{"country":"AT","name":"innerhareth","lat":"48.545","long":"13.525"},"1108":{"country":"AT","name":"innerhorgersteig","lat":"48.05","long":"13.466"},"1109":{"country":"AT","name":"innerhotzendorf","lat":"48.566","long":"13.916"},"1110":{"country":"AT","name":"innerkrems","lat":"46.969","long":"13.724"},"1111":{"country":"AT","name":"innerlaterns","lat":"47.25","long":"9.7330"},"1112":{"country":"AT","name":"innermanzing","lat":"48.133","long":"15.9"},"1113":{"country":"AT","name":"innernoring","lat":"46.891","long":"13.602"},"1114":{"country":"AT","name":"innernsee","lat":"48.216","long":"13.7"},"1115":{"country":"AT","name":"innerochsenbach","lat":"48.1","long":"15"},"1116":{"country":"AT","name":"innerodt","lat":"48.583","long":"13.866"},"1117":{"country":"AT","name":"innerraah","lat":"48.033","long":"13.866"},"1118":{"country":"AT","name":"innerroid","lat":"47.983","long":"13.283"},"1119":{"country":"AT","name":"innerschlag","lat":"48.458","long":"14.242"},"1120":{"country":"AT","name":"innerschmirn","lat":"47.083","long":"11.583"},"1121":{"country":"AT","name":"innerschwand","lat":"47.833","long":"13.4"},"1122":{"country":"AT","name":"innerschwende","lat":"47.367","long":"10.188"},"1123":{"country":"AT","name":"innerstoder","lat":"47.683","long":"14.15"},"1124":{"country":"AT","name":"innerteuchen","lat":"46.747","long":"13.936"},"1125":{"country":"AT","name":"innertreffling","lat":"48.333","long":"14.383"},"1126":{"country":"AT","name":"innervals","lat":"47.05","long":"11.55"},"1127":{"country":"AT","name":"innervillgraten","lat":"46.811","long":"12.374"},"1128":{"country":"AT","name":"inner wald am arlberg","lat":"47.133","long":"10.033"},"1129":{"country":"AT","name":"innerwald","lat":"47.316","long":"11.566"},"1130":{"country":"AT","name":"innerwald","lat":"47.133","long":"10.033"},"1131":{"country":"AT","name":"innerwall","lat":"47.950","long":"13.048"},"1132":{"country":"AT","name":"innerweerberg","lat":"47.3","long":"11.666"},"1133":{"country":"AT","name":"innerwimitz","lat":"46.816","long":"14.233"},"1134":{"country":"AT","name":"innerzaun","lat":"48.2","long":"14.866"},"1135":{"country":"AT","name":"innerzwain","lat":"47.566","long":"15.166"},"1136":{"country":"AT","name":"inning","lat":"48.166","long":"15.416"},"1137":{"country":"AT","name":"inn","lat":"48.166","long":"13.783"},"1138":{"country":"AT","name":"innsbruck","lat":"47.266","long":"11.4"},"1139":{"country":"AT","name":"innzel","lat":"48.45","long":"13.866"},"1140":{"country":"AT","name":"inprugg","lat":"48.216","long":"15.916"},"1141":{"country":"AT","name":"insberg","lat":"46.751","long":"13.600"},"1142":{"country":"AT","name":"intenham","lat":"48.25","long":"14.116"},"1143":{"country":"AT","name":"invalidensiedlung","lat":"48.266","long":"16.533"},"1144":{"country":"AT","name":"in vierzehn jochen","lat":"48.315","long":"16.596"},"1145":{"country":"AT","name":"inzenhof","lat":"47.7","long":"16.2"},"1146":{"country":"AT","name":"inzenhof","lat":"46.916","long":"15.533"},"1147":{"country":"AT","name":"inzersdorf an der traisen","lat":"48.316","long":"15.666"},"1148":{"country":"AT","name":"inzersdorf bei wien","lat":"48.150","long":"16.347"},"1149":{"country":"AT","name":"inzersdorf im kremstal","lat":"47.916","long":"14.066"},"1150":{"country":"AT","name":"inzersdorf","lat":"48.316","long":"15.666"},"1151":{"country":"AT","name":"inzersdorf","lat":"47.916","long":"14.066"},"1152":{"country":"AT","name":"inzersdorf","lat":"48.150","long":"16.347"},"1153":{"country":"AT","name":"inzing","lat":"48.333","long":"13.866"},"1154":{"country":"AT","name":"inzing","lat":"47.283","long":"11.183"},"1155":{"country":"AT","name":"ipfdorf","lat":"48.233","long":"14.416"},"1156":{"country":"AT","name":"irdning","lat":"47.5","long":"14.1"},"1157":{"country":"AT","name":"irenental","lat":"48.2","long":"16.1"},"1158":{"country":"AT","name":"irlach","lat":"47.85","long":"13.216"},"1159":{"country":"AT","name":"irnfritz","lat":"48.733","long":"15.55"},"1160":{"country":"AT","name":"irnharting","lat":"48.133","long":"13.916"},"1161":{"country":"AT","name":"irrendt","lat":"48.433","long":"14.65"},"1162":{"country":"AT","name":"irringsdorf","lat":"48.233","long":"13.583"},"1163":{"country":"AT","name":"irrsdorf","lat":"47.966","long":"13.283"},"1164":{"country":"AT","name":"irsberg","lat":"47.866","long":"13.25"},"1165":{"country":"AT","name":"irschen","lat":"46.756","long":"13.025"},"1166":{"country":"AT","name":"ischgl","lat":"47.016","long":"10.283"},"1167":{"country":"AT","name":"ischi","lat":"47.716","long":"13.616"},"1168":{"country":"AT","name":"ischlberg","lat":"47.616","long":"13.75"},"1169":{"country":"AT","name":"ischl","lat":"47.716","long":"13.616"},"1170":{"country":"AT","name":"iselsberg","lat":"46.838","long":"12.849"},"1171":{"country":"AT","name":"isperdorf","lat":"48.183","long":"15"},"1172":{"country":"AT","name":"isper","lat":"48.283","long":"15.05"},"1173":{"country":"AT","name":"ittensam","lat":"48.033","long":"13.966"},"1174":{"country":"AT","name":"ittensberg","lat":"47.429","long":"9.9508"},"1175":{"country":"AT","name":"itterdorfl","lat":"47.466","long":"12.15"},"1176":{"country":"AT","name":"itter","lat":"47.466","long":"12.133"},"1177":{"country":"AT","name":"itzling","lat":"48.283","long":"13.683"},"1178":{"country":"AT","name":"itzling","lat":"47.816","long":"13.05"},"1179":{"country":"AU","name":"idelwilds","lat":"-26.86","long":"151.75"},"1180":{"country":"AU","name":"ideraway","lat":"-25.58","long":"151.61"},"1181":{"country":"AU","name":"idlewilds","lat":"-26.86","long":"151.75"},"1182":{"country":"AU","name":"iguana creek","lat":"-37.73","long":"147.31"},"1183":{"country":"AU","name":"ilarwill","lat":"-29.48","long":"153.18"},"1184":{"country":"AU","name":"ilbilbie","lat":"-21.7","long":"149.35"},"1185":{"country":"AU","name":"ilford","lat":"-32.96","long":"149.86"},"1186":{"country":"AU","name":"ilfracombe","lat":"-23.5","long":"144.5"},"1187":{"country":"AU","name":"ilfraville","lat":"-41.15","long":"146.81"},"1188":{"country":"AU","name":"ilililiwa","lat":"-34.45","long":"145"},"1189":{"country":"AU","name":"illabarook","lat":"-37.83","long":"143.66"},"1190":{"country":"AU","name":"illabo","lat":"-34.81","long":"147.75"},"1191":{"country":"AU","name":"illabrook","lat":"-37.83","long":"143.66"},"1192":{"country":"AU","name":"illawarra","lat":"-41.55","long":"147.08"},"1193":{"country":"AU","name":"illawarra","lat":"-37.06","long":"142.7"},"1194":{"country":"AU","name":"illawong","lat":"-34","long":"151.03"},"1195":{"country":"AU","name":"illawong","lat":"-29.7","long":"114.95"},"1196":{"country":"AU","name":"illewong","lat":"-31.61","long":"145.95"},"1197":{"country":"AU","name":"illilliwa","lat":"-34.45","long":"145"},"1198":{"country":"AU","name":"illowa","lat":"-38.33","long":"142.41"},"1199":{"country":"AU","name":"iluka","lat":"-29.40","long":"153.35"},"1200":{"country":"AU","name":"imbil","lat":"-26.45","long":"152.67"},"1201":{"country":"AU","name":"indented head","lat":"-38.14","long":"144.71"},"1202":{"country":"AU","name":"indigo","lat":"-36.1","long":"146.56"},"1203":{"country":"AU","name":"indigo upper","lat":"-36.23","long":"146.78"},"1204":{"country":"AU","name":"ingalta","lat":"-34.38","long":"140.8"},"1205":{"country":"AU","name":"ingebirah","lat":"-36.65","long":"148.5"},"1206":{"country":"AU","name":"ingebyrah","lat":"-36.65","long":"148.5"},"1207":{"country":"AU","name":"ingebyra","lat":"-36.65","long":"148.5"},"1208":{"country":"AU","name":"ingham","lat":"-18.64","long":"146.16"},"1209":{"country":"AU","name":"ingleba","lat":"-31.2","long":"151.43"},"1210":{"country":"AU","name":"ingleburn","lat":"-34","long":"150.86"},"1211":{"country":"AU","name":"ingle farm","lat":"-34.83","long":"138.63"},"1212":{"country":"AU","name":"inglega","lat":"-31.38","long":"147.85"},"1213":{"country":"AU","name":"inglehope","lat":"-32.76","long":"116.16"},"1214":{"country":"AU","name":"inglewood","lat":"-36.57","long":"143.86"},"1215":{"country":"AU","name":"inglewood","lat":"-34.83","long":"138.76"},"1216":{"country":"AU","name":"ingliston","lat":"-37.65","long":"144.3"},"1217":{"country":"AU","name":"injune","lat":"-25.84","long":"148.56"},"1218":{"country":"AU","name":"inkerman","lat":"-34.31","long":"138.25"},"1219":{"country":"AU","name":"inkster","lat":"-32.81","long":"134.68"},"1220":{"country":"AU","name":"inman valley","lat":"-35.5","long":"138.45"},"1221":{"country":"AU","name":"innamincka","lat":"-27.75","long":"140.73"},"1222":{"country":"AU","name":"innes park","lat":"-24.86","long":"152.47"},"1223":{"country":"AU","name":"inneston","lat":"-21.55","long":"149.23"},"1224":{"country":"AU","name":"inneston","lat":"-35.27","long":"136.89"},"1225":{"country":"AU","name":"innisfail","lat":"-17.52","long":"146.03"},"1226":{"country":"AU","name":"innisplain","lat":"-28.16","long":"152.9"},"1227":{"country":"AU","name":"innot hot springs","lat":"-17.66","long":"145.25"},"1228":{"country":"AU","name":"interlaken","lat":"-42.15","long":"147.18"},"1229":{"country":"AU","name":"inverai","lat":"-26.78","long":"150.95"},"1230":{"country":"AU","name":"inveralochy","lat":"-34.96","long":"149.65"},"1231":{"country":"AU","name":"inverary park","lat":"-34.88","long":"149.98"},"1232":{"country":"AU","name":"inverell","lat":"-29.77","long":"151.11"},"1233":{"country":"AU","name":"inveresk","lat":"-41.42","long":"147.12"},"1234":{"country":"AU","name":"invergordon","lat":"-36.16","long":"145.58"},"1235":{"country":"AU","name":"inverleigh","lat":"-38.10","long":"144.05"},"1236":{"country":"AU","name":"inverloch","lat":"-38.62","long":"145.72"},"1237":{"country":"AU","name":"invermay","lat":"-41.39","long":"147.13"},"1238":{"country":"AU","name":"inverncoona","lat":"-19.98","long":"148.21"},"1239":{"country":"AU","name":"inveroona","lat":"-19.98","long":"148.21"},"1240":{"country":"AU","name":"inverramsay","lat":"-28.01","long":"152.21"},"1241":{"country":"AU","name":"invicta","lat":"-24.81","long":"152.13"},"1242":{"country":"AU","name":"iogebyra","lat":"-36.65","long":"148.5"},"1243":{"country":"AU","name":"iona","lat":"-38.13","long":"145.68"},"1244":{"country":"AU","name":"ipswich","lat":"-27.61","long":"152.76"},"1245":{"country":"AU","name":"ipswitch","lat":"-27.61","long":"152.76"},"1246":{"country":"AU","name":"iraak","lat":"-34.43","long":"142.33"},"1247":{"country":"AU","name":"irish town","lat":"-40.9","long":"145.13"},"1248":{"country":"AU","name":"ironbank","lat":"-35.05","long":"138.68"},"1249":{"country":"AU","name":"ironbarks","lat":"-33.68","long":"147.9"},"1250":{"country":"AU","name":"iron baron","lat":"-32.98","long":"137.15"},"1251":{"country":"AU","name":"irondale","lat":"-33.38","long":"150.01"},"1252":{"country":"AU","name":"iron knob","lat":"-32.73","long":"137.15"},"1253":{"country":"AU","name":"ironmungy","lat":"-36.58","long":"148.93"},"1254":{"country":"AU","name":"iron range","lat":"-12.7","long":"143.3"},"1255":{"country":"AU","name":"iron range mine","lat":"-12.7","long":"143.3"},"1256":{"country":"AU","name":"irrawang","lat":"-32.73","long":"151.75"},"1257":{"country":"AU","name":"irrewarra","lat":"-38.31","long":"143.63"},"1258":{"country":"AU","name":"irrewillipe","lat":"-38.4","long":"143.41"},"1259":{"country":"AU","name":"irvinebank","lat":"-17.43","long":"145.21"},"1260":{"country":"AU","name":"irwin","lat":"-29.2","long":"115.06"},"1261":{"country":"AU","name":"irymple","lat":"-34.23","long":"142.17"},"1262":{"country":"AU","name":"isabella","lat":"-33.95","long":"149.66"},"1263":{"country":"AU","name":"isisford","lat":"-24.26","long":"144.43"},"1264":{"country":"AU","name":"isis","lat":"-25.21","long":"152.45"},"1265":{"country":"AU","name":"isis junction","lat":"-25.21","long":"152.45"},"1266":{"country":"AU","name":"island bend","lat":"-36.31","long":"148.48"},"1267":{"country":"AU","name":"isseka","lat":"-28.43","long":"114.63"},"1268":{"country":"AU","name":"italian gully","lat":"-37.7","long":"143.66"},"1269":{"country":"AU","name":"ithaca","lat":"-27.45","long":"152.98"},"1270":{"country":"AU","name":"ivanhoe east","lat":"-37.76","long":"145.05"},"1271":{"country":"AU","name":"ivanhoe","lat":"-32.90","long":"144.30"},"1272":{"country":"AU","name":"ivanhoe","lat":"-37.76","long":"145.05"},"1273":{"country":"AU","name":"ivanhoe north","lat":"-37.75","long":"145.03"},"1274":{"country":"AU","name":"iveragh","lat":"-24.13","long":"151.45"},"1275":{"country":"AU","name":"ives find","lat":"-26.91","long":"120.76"},"1276":{"country":"AU","name":"ives","lat":"-26.91","long":"120.76"},"1277":{"country":"AU","name":"iyah","lat":"-19.71","long":"147.45"},"1278":{"country":"AZ","name":"iachma","lat":"40.707","long":"49.475"},"1279":{"country":"AZ","name":"iardymly","lat":"38.920","long":"48.237"},"1280":{"country":"AZ","name":"ibadulla","lat":"39.484","long":"44.957"},"1281":{"country":"AZ","name":"ibakhly","lat":"41.358","long":"46.859"},"1282":{"country":"AZ","name":"ibragimbeyli","lat":"40.428","long":"47.231"},"1283":{"country":"AZ","name":"ibragim-gadzhaly","lat":"40.895","long":"45.745"},"1284":{"country":"AZ","name":"ibragim gadzhyly","lat":"40.895","long":"45.745"},"1285":{"country":"AZ","name":"ibragim-gaput","lat":"41.351","long":"48.795"},"1286":{"country":"AZ","name":"ibragimgapyt","lat":"41.351","long":"48.795"},"1287":{"country":"AZ","name":"ibragimkend","lat":"41.021","long":"47.227"},"1288":{"country":"AZ","name":"ibrahimhacili","lat":"40.883","long":"45.75"},"1289":{"country":"AZ","name":"ibrahimhapit","lat":"41.351","long":"48.795"},"1290":{"country":"AZ","name":"ibrahimkand","lat":"41.021","long":"47.227"},"1291":{"country":"AZ","name":"ibrogim-gadzhyly","lat":"40.883","long":"45.75"},"1292":{"country":"AZ","name":"icara","lat":"39.212","long":"48.369"},"1293":{"country":"AZ","name":"icari","lat":"39.088","long":"46.651"},"1294":{"country":"AZ","name":"icari muslan","lat":"39.073","long":"46.700"},"1295":{"country":"AZ","name":"ichari mushlan","lat":"39.073","long":"46.700"},"1296":{"country":"AZ","name":"idrisi","lat":"41.272","long":"48.761"},"1297":{"country":"AZ","name":"idrisoba","lat":"41.628","long":"48.621"},"1298":{"country":"AZ","name":"idrisqislaq","lat":"41.272","long":"48.761"},"1299":{"country":"AZ","name":"idzhara","lat":"39.212","long":"48.369"},"1300":{"country":"AZ","name":"ieghtsahogh","lat":"39.676","long":"46.572"},"1301":{"country":"AZ","name":"iemish chan","lat":"39.832","long":"47.008"},"1302":{"country":"AZ","name":"igrik","lat":"41.363","long":"48.601"},"1303":{"country":"AZ","name":"igrykh","lat":"41.363","long":"48.601"},"1304":{"country":"AZ","name":"ikinci agali","lat":"39.178","long":"46.762"},"1305":{"country":"AZ","name":"ikinci alicanli","lat":"40.329","long":"47.629"},"1306":{"country":"AZ","name":"ikinci alxasava","lat":"40.563","long":"47.975"},"1307":{"country":"AZ","name":"ikinci arabcabirli","lat":"40.648","long":"47.697"},"1308":{"country":"AZ","name":"ikinci aral","lat":"40.6","long":"47.583"},"1309":{"country":"AZ","name":"ikinci aratkand","lat":"40.497","long":"48.408"},"1310":{"country":"AZ","name":"ikinci asiqli","lat":"39.848","long":"47.656"},"1311":{"country":"AZ","name":"ikinci bilacik","lat":"41.316","long":"46.950"},"1312":{"country":"AZ","name":"ikinci cagan","lat":"40.731","long":"48.548"},"1313":{"country":"AZ","name":"ikinci imamverdili","lat":"39.762","long":"47.891"},"1314":{"country":"AZ","name":"ikinci mayak","lat":"39.361","long":"49.339"},"1315":{"country":"AZ","name":"ikinci meyniman","lat":"40.045","long":"48.735"},"1316":{"country":"AZ","name":"ikinci nomrali mayak","lat":"39.361","long":"49.339"},"1317":{"country":"AZ","name":"ikinci nugadi","lat":"41.318","long":"48.588"},"1318":{"country":"AZ","name":"ikinci pasali","lat":"40.254","long":"48.881"},"1319":{"country":"AZ","name":"ikinci qala","lat":"40.477","long":"50.097"},"1320":{"country":"AZ","name":"ikinci qaradamirci","lat":"40.335","long":"47.164"},"1321":{"country":"AZ","name":"ikinci qarali","lat":"39.454","long":"49.032"},"1322":{"country":"AZ","name":"ikinci sahsevan","lat":"39.630","long":"47.706"},"1323":{"country":"AZ","name":"ikinci sixli","lat":"41.311","long":"45.101"},"1324":{"country":"AZ","name":"ikinci sordahna","lat":"40.606","long":"47.505"},"1325":{"country":"AZ","name":"ikinci tigiq","lat":"39.689","long":"46.520"},"1326":{"country":"AZ","name":"ikinci udullu","lat":"40.308","long":"48.839"},"1327":{"country":"AZ","name":"ikinci yalama","lat":"41.833","long":"48.608"},"1328":{"country":"AZ","name":"ikinci yasma","lat":"40.718","long":"49.511"},"1329":{"country":"AZ","name":"ikinci yeddioymaq","lat":"38.990","long":"48.757"},"1330":{"country":"AZ","name":"ikinci yeniyol","lat":"40.757","long":"48.259"},"1331":{"country":"AZ","name":"ikinci yuzbasli","lat":"40.152","long":"47.101"},"1332":{"country":"AZ","name":"ikindzhi-alkhasova","lat":"40.563","long":"47.975"},"1333":{"country":"AZ","name":"ikindzhi-shikhly","lat":"41.311","long":"45.101"},"1334":{"country":"AZ","name":"ikindzhi-tala","lat":"41.602","long":"46.652"},"1335":{"country":"AZ","name":"ikindzhi-yalama","lat":"41.833","long":"48.608"},"1336":{"country":"AZ","name":"ilanli","lat":"40.472","long":"49.022"},"1337":{"country":"AZ","name":"ilanlu","lat":"40.472","long":"49.022"},"1338":{"country":"AZ","name":"ilanly","lat":"40.472","long":"49.022"},"1339":{"country":"AZ","name":"il'ichevsk","lat":"39.546","long":"44.961"},"1340":{"country":"AZ","name":"ilich","lat":"39.546","long":"44.961"},"1341":{"country":"AZ","name":"iliich","lat":"38.874","long":"48.808"},"1342":{"country":"AZ","name":"iliitch port","lat":"38.874","long":"48.808"},"1343":{"country":"AZ","name":"ilis","lat":"39.956","long":"46.697"},"1344":{"country":"AZ","name":"ilisu","lat":"41.467","long":"47.064"},"1345":{"country":"AZ","name":"ilkhychi","lat":"40.490","long":"48.295"},"1346":{"country":"AZ","name":"il'khychy-gasanefendi","lat":"41.459","long":"48.920"},"1347":{"country":"AZ","name":"ilkhychy","lat":"40.490","long":"48.295"},"1348":{"country":"AZ","name":"ilkhychy","lat":"41.459","long":"48.920"},"1349":{"country":"AZ","name":"ilkhychylar","lat":"40.196","long":"46.970"},"1350":{"country":"AZ","name":"ilkhychy-mamedkhan","lat":"41.415","long":"48.997"},"1351":{"country":"AZ","name":"il'kichi-kazeya","lat":"41.459","long":"48.920"},"1352":{"country":"AZ","name":"il'kychy-gasanefendi","lat":"41.455","long":"48.972"},"1353":{"country":"AZ","name":"ilxici","lat":"40.490","long":"48.295"},"1354":{"country":"AZ","name":"ilxici","lat":"41.415","long":"48.997"},"1355":{"country":"AZ","name":"ilxicilar","lat":"40.196","long":"46.970"},"1356":{"country":"AZ","name":"ilych","lat":"38.874","long":"48.808"},"1357":{"country":"AZ","name":"imamakulukend","lat":"41.554","long":"48.435"},"1358":{"country":"AZ","name":"imambagi","lat":"39.353","long":"47.086"},"1359":{"country":"AZ","name":"imamkulikend","lat":"41.554","long":"48.435"},"1360":{"country":"AZ","name":"imamkulikend-kishlak","lat":"41.554","long":"48.435"},"1361":{"country":"AZ","name":"imamk'ul","lat":"39.743","long":"46.596"},