{"0":{"country":"AE","name":"qalba","lat":"25.074","long":"56.355"},"1":{"country":"AE","name":"qamh","lat":"24.786","long":"56.141"},"2":{"country":"AE","name":"qaraiyah","lat":"25.237","long":"56.361"},"3":{"country":"AE","name":"qaraiyat","lat":"25.237","long":"56.361"},"4":{"country":"AE","name":"qarat ad dulm","lat":"25.860","long":"56.025"},"5":{"country":"AE","name":"qarat al dum","lat":"25.860","long":"56.025"},"6":{"country":"AE","name":"qarmadah","lat":"23.119","long":"53.828"},"7":{"country":"AE","name":"qatarah","lat":"24.259","long":"55.755"},"8":{"country":"AE","name":"qatara","lat":"24.259","long":"55.755"},"9":{"country":"AE","name":"qattara","lat":"24.259","long":"55.755"},"10":{"country":"AE","name":"qatuf","lat":"23.109","long":"53.727"},"11":{"country":"AE","name":"qidfa","lat":"25.304","long":"56.370"},"12":{"country":"AE","name":"qidfi'","lat":"25.304","long":"56.370"},"13":{"country":"AE","name":"qima","lat":"24.786","long":"56.141"},"14":{"country":"AE","name":"qimh","lat":"24.786","long":"56.141"},"15":{"country":"AE","name":"quor","lat":"24.912","long":"56.095"},"16":{"country":"AE","name":"qurayyah","lat":"25.237","long":"56.361"},"17":{"country":"AE","name":"qusaidat","lat":"25.774","long":"55.970"},"18":{"country":"AE","name":"qutuf","lat":"23.102","long":"53.711"},"19":{"country":"AF","name":"qaazi mohammad akhundzadah","lat":"31.721","long":"64.652"},"20":{"country":"AF","name":"qabaghjay","lat":"33.742","long":"65.879"},"21":{"country":"AF","name":"qabaldal","lat":"33.715","long":"68.387"},"22":{"country":"AF","name":"qabarghah","lat":"33.257","long":"68.128"},"23":{"country":"AF","name":"qabargha","lat":"33.257","long":"68.128"},"24":{"country":"AF","name":"qabarghjay","lat":"33.047","long":"67.289"},"25":{"country":"AF","name":"qabar","lat":"33.289","long":"67.161"},"26":{"country":"AF","name":"qabarzan","lat":"34.292","long":"62.127"},"27":{"country":"AF","name":"qabcerak","lat":"34.214","long":"67.489"},"28":{"country":"AF","name":"qabcerakzar","lat":"34.100","long":"66.320"},"29":{"country":"AF","name":"qabcharak zar","lat":"34.100","long":"66.320"},"30":{"country":"AF","name":"qabcherak","lat":"34.214","long":"67.489"},"31":{"country":"AF","name":"qabcherakzar","lat":"34.100","long":"66.320"},"32":{"country":"AF","name":"qabchirak","lat":"33.456","long":"65.465"},"33":{"country":"AF","name":"qabchirak zar","lat":"34.100","long":"66.320"},"34":{"country":"AF","name":"qabcirak","lat":"33.456","long":"65.465"},"35":{"country":"AF","name":"qabedzan","lat":"35.255","long":"69.465"},"36":{"country":"AF","name":"qabelah","lat":"34.514","long":"70.270"},"37":{"country":"AF","name":"qabela","lat":"34.514","long":"70.270"},"38":{"country":"AF","name":"qabelbay","lat":"34.540","long":"69.235"},"39":{"country":"AF","name":"qabergha","lat":"34.102","long":"67.522"},"40":{"country":"AF","name":"qabghuzar","lat":"33.099","long":"67.573"},"41":{"country":"AF","name":"qabilah","lat":"34.514","long":"70.270"},"42":{"country":"AF","name":"qabilah","lat":"34.949","long":"68.893"},"43":{"country":"AF","name":"qabila","lat":"34.949","long":"68.893"},"44":{"country":"AF","name":"qabilbai","lat":"34.540","long":"69.235"},"45":{"country":"AF","name":"qabil bay","lat":"34.540","long":"69.235"},"46":{"country":"AF","name":"qabil dal","lat":"33.715","long":"68.387"},"47":{"country":"AF","name":"qabileh","lat":"34.949","long":"68.893"},"48":{"country":"AF","name":"qabirghah","lat":"34.102","long":"67.522"},"49":{"country":"AF","name":"qabizan","lat":"35.255","long":"69.465"},"50":{"country":"AF","name":"qab joy","lat":"33.150","long":"67.178"},"51":{"country":"AF","name":"qabjuy","lat":"33.150","long":"67.178"},"52":{"country":"AF","name":"qabkhanah","lat":"35.448","long":"69.727"},"53":{"country":"AF","name":"qabkhana","lat":"35.448","long":"69.727"},"54":{"country":"AF","name":"qabkhaneh","lat":"35.448","long":"69.727"},"55":{"country":"AF","name":"qablan","lat":"33.459","long":"67.662"},"56":{"country":"AF","name":"qabli","lat":"31.882","long":"66.392"},"57":{"country":"AF","name":"qablqol","lat":"33.140","long":"67.336"},"58":{"country":"AF","name":"qablqowl","lat":"33.158","long":"67.290"},"59":{"country":"AF","name":"qabparva","lat":"34.237","long":"62.982"},"60":{"country":"AF","name":"qabrgah","lat":"34.102","long":"67.522"},"61":{"country":"AF","name":"qabrughah","lat":"36.469","long":"66.587"},"62":{"country":"AF","name":"qabrugha","lat":"36.469","long":"66.587"},"63":{"country":"AF","name":"qabryak","lat":"34.941","long":"68.121"},"64":{"country":"AF","name":"qabul","lat":"31.480","long":"66.362"},"65":{"country":"AF","name":"qaburghah","lat":"35.881","long":"68.405"},"66":{"country":"AF","name":"qaburghah","lat":"32.861","long":"67.407"},"67":{"country":"AF","name":"qaburghah","lat":"36.469","long":"66.587"},"68":{"country":"AF","name":"qaburgha","lat":"36.525","long":"67.162"},"69":{"country":"AF","name":"qaburgha","lat":"32.861","long":"67.407"},"70":{"country":"AF","name":"qabzar","lat":"33.970","long":"67.371"},"71":{"country":"AF","name":"qacakhel","lat":"33.682","long":"68.691"},"72":{"country":"AF","name":"qacermurda","lat":"33.980","long":"67.326"},"73":{"country":"AF","name":"qacerparida","lat":"34.118","long":"67.446"},"74":{"country":"AF","name":"qacha khel","lat":"33.682","long":"68.691"},"75":{"country":"AF","name":"qacher mordeh","lat":"33.980","long":"67.326"},"76":{"country":"AF","name":"qacherparideh","lat":"34.118","long":"67.446"},"77":{"country":"AF","name":"qacher","lat":"36.727","long":"67.689"},"78":{"country":"AF","name":"qachir murdah","lat":"33.980","long":"67.326"},"79":{"country":"AF","name":"qachir paridah","lat":"34.118","long":"67.446"},"80":{"country":"AF","name":"qachir","lat":"36.727","long":"67.689"},"81":{"country":"AF","name":"qachmordeh","lat":"33.980","long":"67.326"},"82":{"country":"AF","name":"qachmurda","lat":"33.980","long":"67.326"},"83":{"country":"AF","name":"qachqala","lat":"33.470","long":"68.382"},"84":{"country":"AF","name":"qachqari khord","lat":"36.166","long":"66.008"},"85":{"country":"AF","name":"qachqari khurd","lat":"36.166","long":"66.008"},"86":{"country":"AF","name":"qachrak","lat":"34.498","long":"66.974"},"87":{"country":"AF","name":"qacmurda","lat":"33.980","long":"67.326"},"88":{"country":"AF","name":"qacqala","lat":"33.470","long":"68.382"},"89":{"country":"AF","name":"qadagak","lat":"34.076","long":"68.182"},"90":{"country":"AF","name":"qadaghi","lat":"34.611","long":"66.994"},"91":{"country":"AF","name":"qadah","lat":"34.163","long":"67.433"},"92":{"country":"AF","name":"qadalak","lat":"34.125","long":"66.288"},"93":{"country":"AF","name":"qadam 'ali","lat":"36.182","long":"67.550"},"94":{"country":"AF","name":"qadamay petawe day","lat":"34.008","long":"70.552"},"95":{"country":"AF","name":"qadamay pitaway day","lat":"34.008","long":"70.552"},"96":{"country":"AF","name":"qadamay","lat":"34.008","long":"70.552"},"97":{"country":"AF","name":"qadamgah","lat":"32.866","long":"64.586"},"98":{"country":"AF","name":"qadam khel","lat":"33.267","long":"68.396"},"99":{"country":"AF","name":"qadam post","lat":"33.374","long":"70.147"},"100":{"country":"AF","name":"qadam","lat":"37.092","long":"70.230"},"101":{"country":"AF","name":"qadam","lat":"33.361","long":"70.184"},"102":{"country":"AF","name":"qadam","lat":"32.929","long":"66.692"},"103":{"country":"AF","name":"qadamy petawe day","lat":"34.008","long":"70.552"},"104":{"country":"AF","name":"qada","lat":"34.163","long":"67.433"},"105":{"country":"AF","name":"qadar khel","lat":"33.970","long":"68.472"},"106":{"country":"AF","name":"qadar kot","lat":"33.394","long":"69.350"},"107":{"country":"AF","name":"qaday sang","lat":"34.486","long":"66.935"},"108":{"country":"AF","name":"qaddis","lat":"34.808","long":"63.430"},"109":{"country":"AF","name":"qad-e kamar","lat":"36.333","long":"67.048"},"110":{"country":"AF","name":"qadelbash","lat":"34.446","long":"68.757"},"111":{"country":"AF","name":"qadelbas","lat":"34.446","long":"68.757"},"112":{"country":"AF","name":"qader abad","lat":"32.387","long":"61.492"},"113":{"country":"AF","name":"qader kala","lat":"32.747","long":"68.623"},"114":{"country":"AF","name":"qader kalay","lat":"31.850","long":"64.683"},"115":{"country":"AF","name":"qaderkhan bandeh","lat":"34.247","long":"70.202"},"116":{"country":"AF","name":"qader khaneh","lat":"32.382","long":"68.353"},"117":{"country":"AF","name":"qaderkhel","lat":"34.276","long":"69.604"},"118":{"country":"AF","name":"qaderkhel","lat":"31.569","long":"66.512"},"119":{"country":"AF","name":"qaderkhel","lat":"33.970","long":"68.472"},"120":{"country":"AF","name":"qaderkhel","lat":"32.436","long":"67.560"},"121":{"country":"AF","name":"qaderkhel","lat":"35.102","long":"69.255"},"122":{"country":"AF","name":"qaderkheyl","lat":"34.276","long":"69.604"},"123":{"country":"AF","name":"qaderkheyl","lat":"31.569","long":"66.512"},"124":{"country":"AF","name":"qader kheyl","lat":"33.970","long":"68.472"},"125":{"country":"AF","name":"qader kheyl","lat":"32.436","long":"67.560"},"126":{"country":"AF","name":"qaderkheyl","lat":"35.102","long":"69.255"},"127":{"country":"AF","name":"qader khune","lat":"32.382","long":"68.353"},"128":{"country":"AF","name":"qader kot","lat":"33.394","long":"69.350"},"129":{"country":"AF","name":"qader kowt","lat":"33.394","long":"69.350"},"130":{"country":"AF","name":"qader","lat":"31.207","long":"62.097"},"131":{"country":"AF","name":"qade sang","lat":"34.486","long":"66.935"},"132":{"country":"AF","name":"qades","lat":"34.808","long":"63.430"},"133":{"country":"AF","name":"qadiani","lat":"36.438","long":"69.572"},"134":{"country":"AF","name":"qad-i-kamar","lat":"36.333","long":"67.048"},"135":{"country":"AF","name":"qadi","lat":"33.052","long":"67.420"},"136":{"country":"AF","name":"qadirabad","lat":"32.387","long":"61.492"},"137":{"country":"AF","name":"qadir jan kelay","lat":"32.817","long":"69.300"},"138":{"country":"AF","name":"qadir kala","lat":"32.747","long":"68.623"},"139":{"country":"AF","name":"qadir kelay","lat":"31.850","long":"64.683"},"140":{"country":"AF","name":"qadir khan bandah","lat":"34.247","long":"70.202"},"141":{"country":"AF","name":"qadir khel bandah","lat":"34.247","long":"70.202"},"142":{"country":"AF","name":"qadir khel","lat":"34.276","long":"69.604"},"143":{"country":"AF","name":"qadir khel","lat":"31.569","long":"66.512"},"144":{"country":"AF","name":"qadir khel","lat":"33.970","long":"68.472"},"145":{"country":"AF","name":"qadir khel","lat":"32.436","long":"67.560"},"146":{"country":"AF","name":"qadir khel","lat":"34.936","long":"68.808"},"147":{"country":"AF","name":"qadir khel","lat":"35.102","long":"69.255"},"148":{"country":"AF","name":"qadirkheyl","lat":"34.936","long":"68.808"},"149":{"country":"AF","name":"qadir khune","lat":"32.382","long":"68.353"},"150":{"country":"AF","name":"qadir","lat":"31.207","long":"62.097"},"151":{"country":"AF","name":"qadis","lat":"34.808","long":"63.430"},"152":{"country":"AF","name":"qadma","lat":"33.779","long":"66.342"},"153":{"country":"AF","name":"qadru kalay","lat":"31.970","long":"66.783"},"154":{"country":"AF","name":"qadru kelay","lat":"31.970","long":"66.783"},"155":{"country":"AF","name":"qad sang","lat":"34.486","long":"66.935"},"156":{"country":"AF","name":"qadur","lat":"35.788","long":"67.318"},"157":{"country":"AF","name":"qadyani","lat":"36.438","long":"69.572"},"158":{"country":"AF","name":"qadzi awlade bay","lat":"34.610","long":"65.741"},"159":{"country":"AF","name":"qadzi bandeh","lat":"34.679","long":"70.945"},"160":{"country":"AF","name":"qadzi deh","lat":"36.670","long":"71.766"},"161":{"country":"AF","name":"qadzi kalay","lat":"31.410","long":"65.762"},"162":{"country":"AF","name":"qadzi kalay","lat":"32.983","long":"69.046"},"163":{"country":"AF","name":"qadzi karez","lat":"31.537","long":"65.845"},"164":{"country":"AF","name":"qadzi kariz","lat":"31.537","long":"65.845"},"165":{"country":"AF","name":"qadzikhel","lat":"34.563","long":"68.960"},"166":{"country":"AF","name":"qadzikhel","lat":"35.033","long":"69.319"},"167":{"country":"AF","name":"qadzi mohammad akhundzadah","lat":"31.721","long":"64.652"},"168":{"country":"AF","name":"qadzimurda","lat":"34.379","long":"66.538"},"169":{"country":"AF","name":"qadzi","lat":"36.168","long":"68.730"},"170":{"country":"AF","name":"qadzi","lat":"34.610","long":"65.741"},"171":{"country":"AF","name":"qadzi qeshlaq","lat":"36.982","long":"70.334"},"172":{"country":"AF","name":"qadzi qeslaq","lat":"36.982","long":"70.334"},"173":{"country":"AF","name":"qadzyan","lat":"34.673","long":"70.167"},"174":{"country":"AF","name":"qadzyan","lat":"34.635","long":"65.756"},"175":{"country":"AF","name":"qadzyan","lat":"34.828","long":"69.670"},"176":{"country":"AF","name":"qadzyan","lat":"31.112","long":"66.552"},"177":{"country":"AF","name":"qadzyan","lat":"34.901","long":"71.142"},"178":{"country":"AF","name":"qa'eniha","lat":"34.344","long":"62.165"},"179":{"country":"AF","name":"qafak-e bala","lat":"34.171","long":"65.630"},"180":{"country":"AF","name":"qafak","lat":"34.11","long":"66.804"},"181":{"country":"AF","name":"qafak","lat":"34.215","long":"67.564"},"182":{"country":"AF","name":"qafak","lat":"34.146","long":"65.580"},"183":{"country":"AF","name":"qafas kalay","lat":"34.522","long":"69.536"},"184":{"country":"AF","name":"qafas kelay","lat":"34.522","long":"69.536"},"185":{"country":"AF","name":"qafaslan","lat":"34.317","long":"62.192"},"186":{"country":"AF","name":"qafcarak","lat":"34.208","long":"67.522"},"187":{"country":"AF","name":"qafcharak","lat":"34.208","long":"67.522"},"188":{"country":"AF","name":"qafelabasi","lat":"34.796","long":"67.765"},"189":{"country":"AF","name":"qafelah bashi","lat":"34.796","long":"67.765"},"190":{"country":"AF","name":"qafelehbashi","lat":"34.796","long":"67.765"},"191":{"country":"AF","name":"qaflan darah","lat":"35.650","long":"64.868"},"192":{"country":"AF","name":"qaflan darah","lat":"36.519","long":"66.965"},"193":{"country":"AF","name":"qaflan dara","lat":"36.519","long":"66.965"},"194":{"country":"AF","name":"qaflan darrah","lat":"35.650","long":"64.868"},"195":{"country":"AF","name":"qaflan darreh","lat":"35.650","long":"64.868"},"196":{"country":"AF","name":"qaflan darreh","lat":"36.519","long":"66.965"},"197":{"country":"AF","name":"qaflani","lat":"36.388","long":"68.046"},"198":{"country":"AF","name":"qaflatun","lat":"36.061","long":"65.834"},"199":{"country":"AF","name":"qaf qol","lat":"34.480","long":"67.215"},"200":{"country":"AF","name":"qafqol","lat":"34.541","long":"66.773"},"201":{"country":"AF","name":"qaf qol","lat":"34.518","long":"68.037"},"202":{"country":"AF","name":"qafqowl","lat":"34.480","long":"67.215"},"203":{"country":"AF","name":"qafqowl","lat":"34.518","long":"68.037"},"204":{"country":"AF","name":"qafqul","lat":"34.480","long":"67.215"},"205":{"country":"AF","name":"qafzar","lat":"35.860","long":"66.783"},"206":{"country":"AF","name":"qafzar","lat":"34.666","long":"68.426"},"207":{"country":"AF","name":"qafzar","lat":"33.941","long":"66.427"},"208":{"country":"AF","name":"qaghor","lat":"35.306","long":"67.630"},"209":{"country":"AF","name":"qaghur","lat":"35.306","long":"67.630"},"210":{"country":"AF","name":"qaha deh","lat":"32.965","long":"67.523"},"211":{"country":"AF","name":"qahari","lat":"34.228","long":"65.307"},"212":{"country":"AF","name":"qahrah","lat":"32.965","long":"67.523"},"213":{"country":"AF","name":"qahr-e hendu","lat":"35.426","long":"64.035"},"214":{"country":"AF","name":"qahr-e hindu","lat":"35.426","long":"64.035"},"215":{"country":"AF","name":"qahr-i-hindu","lat":"35.426","long":"64.035"},"216":{"country":"AF","name":"qahvehkhaneh","lat":"35.924","long":"68.719"},"217":{"country":"AF","name":"qahwah khanah","lat":"35.924","long":"68.719"},"218":{"country":"AF","name":"qahwakhana","lat":"35.924","long":"68.719"},"219":{"country":"AF","name":"qa'iniha","lat":"34.344","long":"62.165"},"220":{"country":"AF","name":"qaisar kala","lat":"33.148","long":"68.585"},"221":{"country":"AF","name":"qaisar","lat":"35.687","long":"64.293"},"222":{"country":"AF","name":"qajghari","lat":"35.774","long":"69.318"},"223":{"country":"AF","name":"qajirak","lat":"33.970","long":"66.605"},"224":{"country":"AF","name":"qajir khanah","lat":"35.960","long":"69.042"},"225":{"country":"AF","name":"qajirkhana","lat":"35.960","long":"69.042"},"226":{"country":"AF","name":"qajir khaneh","lat":"35.960","long":"69.042"},"227":{"country":"AF","name":"qakhchubak","lat":"34.054","long":"66.559"},"228":{"country":"AF","name":"qakhcobak","lat":"34.054","long":"66.559"},"229":{"country":"AF","name":"qal'a 'abdulahmadkhan","lat":"33.537","long":"68.427"},"230":{"country":"AF","name":"qal'a 'abdul 'ali","lat":"34.519","long":"69.034"},"231":{"country":"AF","name":"qala abdul karim","lat":"34.447","long":"68.450"},"232":{"country":"AF","name":"qal'a 'abdullahjan","lat":"33.516","long":"68.261"},"233":{"country":"AF","name":"qal'a 'abdullah","lat":"34.457","long":"70.352"},"234":{"country":"AF","name":"qal'a adamkhan","lat":"34.464","long":"69.270"},"235":{"country":"AF","name":"qal'a ade","lat":"34.580","long":"68.986"},"236":{"country":"AF","name":"qala adraskan","lat":"33.645","long":"62.269"},"237":{"country":"AF","name":"qal'a afandi","lat":"34.424","long":"70.360"},"238":{"country":"AF","name":"qal'a afdzal","lat":"30.279","long":"61.753"},"239":{"country":"AF","name":"qal'a afghan","lat":"35.181","long":"69.337"},"240":{"country":"AF","name":"qal'a ahangaran","lat":"33.544","long":"68.401"},"241":{"country":"AF","name":"qala ahangaran","lat":"34.470","long":"65.063"},"242":{"country":"AF","name":"qal'a ahengaran","lat":"33.619","long":"68.062"},"243":{"country":"AF","name":"qal'a ahengar","lat":"34.351","long":"68.835"},"244":{"country":"AF","name":"qala ahingaran","lat":"35.614","long":"69.491"},"245":{"country":"AF","name":"qal'a ahmadkhan","lat":"34.511","long":"69.259"},"246":{"country":"AF","name":"qala'a-i-hakemi","lat":"35.991","long":"69.505"},"247":{"country":"AF","name":"qala akhond","lat":"34.413","long":"70.579"},"248":{"country":"AF","name":"qal'a akhund","lat":"33.587","long":"68.027"},"249":{"country":"AF","name":"qal'a akhund","lat":"34.622","long":"70.219"},"250":{"country":"AF","name":"qal'a akhundzada","lat":"34.518","long":"69.113"},"251":{"country":"AF","name":"qal'a aklay","lat":"33.520","long":"68.643"},"252":{"country":"AF","name":"qala akund","lat":"34.413","long":"70.579"},"253":{"country":"AF","name":"qal'a 'ali","lat":"33.395","long":"68.404"},"254":{"country":"AF","name":"qal'a allahnazar","lat":"34.394","long":"70.285"},"255":{"country":"AF","name":"qal'a amir","lat":"34.550","long":"69.013"},"256":{"country":"AF","name":"qal'a amruddin","lat":"33.83","long":"68.964"},"257":{"country":"AF","name":"qala antar","lat":"33.370","long":"64.574"},"258":{"country":"AF","name":"qala ao safed","lat":"34.966","long":"61.608"},"259":{"country":"AF","name":"qal'a aqa","lat":"34.568","long":"68.998"},"260":{"country":"AF","name":"qa'la arbaba","lat":"33.543","long":"68.439"},"261":{"country":"AF","name":"qal'a arbab","lat":"33.576","long":"68.380"},"262":{"country":"AF","name":"qal'a 'askar","lat":"34.527","long":"69.097"},"263":{"country":"AF","name":"qal'a asun","lat":"34.709","long":"68.491"},"264":{"country":"AF","name":"qal'a 'atakhan","lat":"35.097","long":"69.398"},"265":{"country":"AF","name":"qal'a atam","lat":"34.556","long":"68.936"},"266":{"country":"AF","name":"qal'a ata","lat":"34.763","long":"68.490"},"267":{"country":"AF","name":"qal'a atek","lat":"34.558","long":"70.564"},"268":{"country":"AF","name":"qala awkhar","lat":"31.301","long":"62.261"},"269":{"country":"AF","name":"qal'a azad","lat":"33.620","long":"68.42"},"270":{"country":"AF","name":"qal'a baba","lat":"34.230","long":"67.996"},"271":{"country":"AF","name":"qal'a badak","lat":"34.418","long":"67.047"},"272":{"country":"AF","name":"qal'a badal","lat":"34.609","long":"68.93"},"273":{"country":"AF","name":"qal'a baday","lat":"35.815","long":"68.808"},"274":{"country":"AF","name":"qal'a baghalak","lat":"34.446","long":"67.273"},"275":{"country":"AF","name":"qal'a baghal","lat":"34.788","long":"68.476"},"276":{"country":"AF","name":"qal'a bagher","lat":"34.459","long":"68.612"},"277":{"country":"AF","name":"qal'a bahadur","lat":"33.934","long":"68.985"},"278":{"country":"AF","name":"qala bakhtagan","lat":"35.808","long":"66.642"},"279":{"country":"AF","name":"qal'a bakhtyari","lat":"34.384","long":"67.995"},"280":{"country":"AF","name":"qala bakhtyar","lat":"34.472","long":"69.108"},"281":{"country":"AF","name":"qal'a bala","lat":"35.150","long":"69.279"},"282":{"country":"AF","name":"qal'a bande","lat":"34.611","long":"66.630"},"283":{"country":"AF","name":"qal'a baqay","lat":"34.509","long":"68.967"},"284":{"country":"AF","name":"qal'a baqi","lat":"34.312","long":"68.109"},"285":{"country":"AF","name":"qal'a baqi","lat":"35.104","long":"69.165"},"286":{"country":"AF","name":"qal'a bara","lat":"33.248","long":"68.236"},"287":{"country":"AF","name":"qal'a barat","lat":"34.698","long":"68.307"},"288":{"country":"AF","name":"qala bar panja","lat":"37.558","long":"71.482"},"289":{"country":"AF","name":"qal'a-bar panj","lat":"37.558","long":"71.482"},"290":{"country":"AF","name":"qala bati dara","lat":"34.107","long":"64.305"},"291":{"country":"AF","name":"qal'a baye'","lat":"34.736","long":"70.122"},"292":{"country":"AF","name":"qal'a bazid","lat":"34.958","long":"69.190"},"293":{"country":"AF","name":"qal'a beland","lat":"33.614","long":"68.299"},"294":{"country":"AF","name":"qal'a beran","lat":"34.383","long":"66.918"},"295":{"country":"AF","name":"qal'a berget","lat":"33.232","long":"68.062"},"296":{"country":"AF","name":"qal'aca-i-ghar","lat":"34.490","long":"66.126"},"297":{"country":"AF","name":"qalaca-i-safa","lat":"34.989","long":"69.187"},"298":{"country":"AF","name":"qal'aca-i-sahebzada","lat":"34.493","long":"69.213"},"299":{"country":"AF","name":"qalaca-i-sokhta","lat":"34.992","long":"69.211"},"300":{"country":"AF","name":"qalaca-i-sufla","lat":"34.430","long":"67.206"},"301":{"country":"AF","name":"qalaca-i-'ulya","lat":"34.436","long":"67.208"},"302":{"country":"AF","name":"qal'aca","lat":"34.488","long":"66.117"},"303":{"country":"AF","name":"qalaca","lat":"31.650","long":"66.176"},"304":{"country":"AF","name":"qalaca","lat":"35.226","long":"69.376"},"305":{"country":"AF","name":"qal'aca","lat":"31.157","long":"62.114"},"306":{"country":"AF","name":"qalaca","lat":"35.811","long":"66.788"},"307":{"country":"AF","name":"qalaca","lat":"35.500","long":"67.722"},"308":{"country":"AF","name":"qal'aca","lat":"35.005","long":"68.768"},"309":{"country":"AF","name":"qalachah-i- shafa","lat":"34.989","long":"69.187"},"310":{"country":"AF","name":"qalachah","lat":"34.045","long":"66.646"},"311":{"country":"AF","name":"qalachah","lat":"35.226","long":"69.376"},"312":{"country":"AF","name":"qalachah","lat":"31.650","long":"66.176"},"313":{"country":"AF","name":"qal'achah","lat":"36.118","long":"70.243"},"314":{"country":"AF","name":"qalachah","lat":"35.500","long":"67.722"},"315":{"country":"AF","name":"qalachah-ye shafa","lat":"34.989","long":"69.187"},"316":{"country":"AF","name":"qalachah-ye sokhtah","lat":"34.992","long":"69.211"},"317":{"country":"AF","name":"qal'acha-i-sahebzada","lat":"34.493","long":"69.213"},"318":{"country":"AF","name":"qalacha-i sokhta","lat":"34.992","long":"69.211"},"319":{"country":"AF","name":"qalacha","lat":"34.695","long":"70.159"},"320":{"country":"AF","name":"qal'acha","lat":"36.118","long":"70.243"},"321":{"country":"AF","name":"qalacha","lat":"36.770","long":"66.873"},"322":{"country":"AF","name":"qalacheh","lat":"34.423","long":"66.558"},"323":{"country":"AF","name":"qalacheh","lat":"35.226","long":"69.376"},"324":{"country":"AF","name":"qalacheh","lat":"35.811","long":"66.788"},"325":{"country":"AF","name":"qalacheh","lat":"35.500","long":"67.722"},"326":{"country":"AF","name":"qal'acheh","lat":"35.005","long":"68.768"},"327":{"country":"AF","name":"qalacheh-ye 'olya","lat":"34.436","long":"67.208"},"328":{"country":"AF","name":"qalacheh-ye shafa","lat":"34.989","long":"69.187"},"329":{"country":"AF","name":"qalacheh-ye sofla","lat":"34.430","long":"67.206"},"330":{"country":"AF","name":"qalacheh-ye sukhteh","lat":"34.992","long":"69.211"},"331":{"country":"AF","name":"qal'a dalil","lat":"34.547","long":"69.005"},"332":{"country":"AF","name":"qala darband-i-jaokar","lat":"35.521","long":"63.370"},"333":{"country":"AF","name":"qal'a darrah","lat":"37.134","long":"70.138"},"334":{"country":"AF","name":"qala dasht-i-safed","lat":"35.320","long":"67.907"},"335":{"country":"AF","name":"qal'a dast","lat":"34.013","long":"67.514"},"336":{"country":"AF","name":"qal'a dast","lat":"34.848","long":"69.714"},"337":{"country":"AF","name":"qala daulat khan","lat":"33.510","long":"68.803"},"338":{"country":"AF","name":"qala deh birinj","lat":"34.758","long":"63.270"},"339":{"country":"AF","name":"qal'a dewana","lat":"34.327","long":"68.723"},"340":{"country":"AF","name":"qala doab","lat":"34.962","long":"68.639"},"341":{"country":"AF","name":"qal'a doroz","lat":"34.315","long":"68.098"},"342":{"country":"AF","name":"qalad","lat":"35.973","long":"69.796"},"343":{"country":"AF","name":"qal'a dum","lat":"33.377","long":"66.875"},"344":{"country":"AF","name":"qala durrani","lat":"34.288","long":"68.847"},"345":{"country":"AF","name":"qal'a duzdu","lat":"34.158","long":"66.540"},"346":{"country":"AF","name":"qal'a-e mir","lat":"36.448","long":"69.540"},"347":{"country":"AF","name":"qala-e-nau","lat":"34.987","long":"63.128"},"348":{"country":"AF","name":"qalaenaw","lat":"34.987","long":"63.128"},"349":{"country":"AF","name":"qal'a esan","lat":"35.763","long":"68.905"},"350":{"country":"AF","name":"qal'a 'esrat","lat":"33.534","long":"68.440"},"351":{"country":"AF","name":"qal'a fadzluddin","lat":"34.400","long":"70.292"},"352":{"country":"AF","name":"qal'afa-i-'alam khan","lat":"32.581","long":"61.568"},"353":{"country":"AF","name":"qal'a faqirsah","lat":"35.031","long":"69.194"},"354":{"country":"AF","name":"qal'a farsi","lat":"33.785","long":"63.247"},"355":{"country":"AF","name":"qal'a fatehkhan","lat":"34.538","long":"69.199"},"356":{"country":"AF","name":"qalagai","lat":"34.370","long":"69.579"},"357":{"country":"AF","name":"qalagai","lat":"34.557","long":"70.577"},"358":{"country":"AF","name":"qal'agak","lat":"34.389","long":"66.618"},"359":{"country":"AF","name":"qal'agak","lat":"35.521","long":"66.479"},"360":{"country":"AF","name":"qala gangi","lat":"34.712","long":"69.054"},"361":{"country":"AF","name":"qalagay","lat":"34.370","long":"69.579"},"362":{"country":"AF","name":"qalagay","lat":"34.557","long":"70.577"},"363":{"country":"AF","name":"qal'agay","lat":"31.665","long":"66.578"},"364":{"country":"AF","name":"qala gaz","lat":"32.003","long":"64.783"},"365":{"country":"AF","name":"qal'a gerdab","lat":"36.934","long":"69.705"},"366":{"country":"AF","name":"qal'a geru","lat":"34.267","long":"67.654"},"367":{"country":"AF","name":"qal'a ghafur","lat":"33.382","long":"68.333"},"368":{"country":"AF","name":"qalaghaj-e 'olya","lat":"33.435","long":"68.473"},"369":{"country":"AF","name":"qalaghaje","lat":"33.428","long":"68.486"},"370":{"country":"AF","name":"qalaghaj-e sofla","lat":"33.428","long":"68.486"},"371":{"country":"AF","name":"qalaghaje sufla","lat":"33.428","long":"68.486"},"372":{"country":"AF","name":"qalaghaje 'ulya","lat":"33.435","long":"68.473"},"373":{"country":"AF","name":"qal'a ghani","lat":"34.999","long":"69.596"},"374":{"country":"AF","name":"qal'a gharib","lat":"33.601","long":"68.286"},"375":{"country":"AF","name":"qal'a ghawcake korala","lat":"33.840","long":"67.760"},"376":{"country":"AF","name":"qalaghech","lat":"35.078","long":"69.649"},"377":{"country":"AF","name":"qalaghec","lat":"35.078","long":"69.649"},"378":{"country":"AF","name":"qalaghich","lat":"35.078","long":"69.649"},"379":{"country":"AF","name":"qal'a gholambeg","lat":"34.448","long":"66.988"},"380":{"country":"AF","name":"qal'a gholamhasanbeg","lat":"35.286","long":"66.228"},"381":{"country":"AF","name":"qal'a gholamo","lat":"34.575","long":"69.112"},"382":{"country":"AF","name":"qal'a gholam","lat":"34.139","long":"68.429"},"383":{"country":"AF","name":"qal'agi","lat":"32.170","long":"63.526"},"384":{"country":"AF","name":"qala girdab","lat":"36.934","long":"69.705"},"385":{"country":"AF","name":"qal'a giro","lat":"34.378","long":"67.158"},"386":{"country":"AF","name":"qal'a giru","lat":"34.475","long":"67.063"},"387":{"country":"AF","name":"qal'a giru","lat":"34.311","long":"68.116"},"388":{"country":"AF","name":"qal'a goder","lat":"34.837","long":"69.206"},"389":{"country":"AF","name":"qal'a golay","lat":"34.923","long":"69.243"},"390":{"country":"AF","name":"qal'a gulahmad","lat":"34.784","long":"70.105"},"391":{"country":"AF","name":"qal'a hajat","lat":"33.915","long":"68.096"},"392":{"country":"AF","name":"qal'a haji bahawuddin","lat":"33.790","long":"68.941"},"393":{"country":"AF","name":"qal'a haji","lat":"33.573","long":"68.009"},"394":{"country":"AF","name":"qal'a haji","lat":"34.425","long":"70.400"},"395":{"country":"AF","name":"qal'a haji saheb","lat":"34.428","long":"70.335"},"396":{"country":"AF","name":"qal'a hakim","lat":"34.602","long":"68.975"},"397":{"country":"AF","name":"qal'a halim","lat":"34.730","long":"70.135"},"398":{"country":"AF","name":"qal'ah arbaba","lat":"33.543","long":"68.439"},"399":{"country":"AF","name":"qal'a hasankhelha","lat":"34.493","long":"69.280"},"400":{"country":"AF","name":"qal'a hasan","lat":"34.467","long":"70.529"},"401":{"country":"AF","name":"qal'a haydar","lat":"34.586","long":"68.169"},"402":{"country":"AF","name":"qal'ahchah","lat":"34.598","long":"66.699"},"403":{"country":"AF","name":"qal'ah chah","lat":"36.780","long":"66.877"},"404":{"country":"AF","name":"qal'ah chah","lat":"32.839","long":"65.037"},"405":{"country":"AF","name":"qal'ah chah","lat":"31.157","long":"62.114"},"406":{"country":"AF","name":"qal'ahchah","lat":"35.226","long":"69.376"},"407":{"country":"AF","name":"qal'ah chah","lat":"35.811","long":"66.788"},"408":{"country":"AF","name":"qal'ahchah","lat":"35.005","long":"68.768"},"409":{"country":"AF","name":"qal'ahchah-ye bini hisar","lat":"34.488","long":"69.217"},"410":{"country":"AF","name":"qal'ah chah-ye ghar","lat":"34.490","long":"66.126"},"411":{"country":"AF","name":"qal'ahchah-ye gul khanah","lat":"34.498","long":"69.107"},"412":{"country":"AF","name":"qal'ahchah-ye khandan","lat":"34.504","long":"69.196"},"413":{"country":"AF","name":"qal'ahchah-ye 'olya","lat":"34.436","long":"67.208"},"414":{"country":"AF","name":"qal'ahchah-ye sahibzadah","lat":"34.493","long":"69.213"},"415":{"country":"AF","name":"qal'ahchah-ye sufla","lat":"34.430","long":"67.206"},"416":{"country":"AF","name":"qal'ahchah-ye 'ulya","lat":"34.436","long":"67.208"},"417":{"country":"AF","name":"qal'ah darah","lat":"37.134","long":"70.138"},"418":{"country":"AF","name":"qal'ah dum","lat":"33.377","long":"66.875"},"419":{"country":"AF","name":"qal'a hendu","lat":"34.421","long":"70.491"},"420":{"country":"AF","name":"qal'ah gak","lat":"34.389","long":"66.618"},"421":{"country":"AF","name":"qal'ah gak","lat":"35.521","long":"66.479"},"422":{"country":"AF","name":"qal'ahgay","lat":"34.370","long":"69.579"},"423":{"country":"AF","name":"qal'ah gay","lat":"32.170","long":"63.526"},"424":{"country":"AF","name":"qal'ah haji","lat":"33.573","long":"68.009"},"425":{"country":"AF","name":"qala hisar","lat":"34.154","long":"64.072"},"426":{"country":"AF","name":"qala hissar","lat":"34.154","long":"64.072"},"427":{"country":"AF","name":"qal'ah malakh","lat":"34.462","long":"70.511"},"428":{"country":"AF","name":"qal'ah maslakh","lat":"34.462","long":"70.511"},"429":{"country":"AF","name":"qal'ah mulla-ye lang","lat":"33.616","long":"68.456"},"430":{"country":"AF","name":"qal'ah najil","lat":"34.893","long":"70.112"},"431":{"country":"AF","name":"qal'ah nam","lat":"34.043","long":"66.246"},"432":{"country":"AF","name":"qal'ah naw-e noh burjah","lat":"33.637","long":"68.420"},"433":{"country":"AF","name":"qal'ah naw-e sar-e rayg","lat":"33.538","long":"68.416"},"434":{"country":"AF","name":"qal'ah naw","lat":"34.559","long":"68.935"},"435":{"country":"AF","name":"qal'ah now","lat":"35.443","long":"67.141"},"436":{"country":"AF","name":"qal'a hosayn","lat":"34.733","long":"70.131"},"437":{"country":"AF","name":"qal'ah pakhchak","lat":"34.482","long":"69.102"},"438":{"country":"AF","name":"qal'ah paytowah","lat":"34.238","long":"66.136"},"439":{"country":"AF","name":"qal'ah","lat":"36.029","long":"70.773"},"440":{"country":"AF","name":"qal'ah","lat":"34.544","long":"70.251"},"441":{"country":"AF","name":"qal'ah","lat":"34.018","long":"66.672"},"442":{"country":"AF","name":"qal'ah","lat":"34.526","long":"65.942"},"443":{"country":"AF","name":"qal'ah","lat":"34.227","long":"62.900"},"444":{"country":"AF","name":"qal'ah","lat":"34.917","long":"69.867"},"445":{"country":"AF","name":"qal'ah","lat":"34.337","long":"67.468"},"446":{"country":"AF","name":"qal'ah","lat":"35.909","long":"67.287"},"447":{"country":"AF","name":"qal'ah","lat":"33.362","long":"65.315"},"448":{"country":"AF","name":"qal'ah sabir","lat":"34.038","long":"69.020"},"449":{"country":"AF","name":"qal'ah sabzadah","lat":"32.174","long":"61.792"},"450":{"country":"AF","name":"qal'ah sangay","lat":"31.150","long":"66.474"},"451":{"country":"AF","name":"qal'ah sang-e takht","lat":"34.259","long":"66.131"},"452":{"country":"AF","name":"qal'ah shadah","lat":"34.497","long":"69.122"},"453":{"country":"AF","name":"qal'ah surkh","lat":"34.235","long":"66.144"},"454":{"country":"AF","name":"qal'ahtak-e bala","lat":"34.545","long":"70.275"},"455":{"country":"AF","name":"qal'ahtak-e pa'in","lat":"34.544","long":"70.274"},"456":{"country":"AF","name":"qal'ahtak","lat":"34.778","long":"70.436"},"457":{"country":"AF","name":"qal'ahtak","lat":"32.735","long":"66.481"},"458":{"country":"AF","name":"qal'ah wali-ye pa'in","lat":"33.564","long":"68.351"},"459":{"country":"AF","name":"qal'ah wayran","lat":"33.901","long":"66.084"},"460":{"country":"AF","name":"qal'ah wonah","lat":"34.764","long":"71.000"},"461":{"country":"AF","name":"qal'ah-wunah","lat":"34.666","long":"71.004"},"462":{"country":"AF","name":"qal'ah wunah","lat":"34.681","long":"70.994"},"463":{"country":"AF","name":"qal'ah-ye 'abbas khan","lat":"36.722","long":"67.001"},"464":{"country":"AF","name":"qal'ah-ye 'abbas","lat":"34.890","long":"68.189"},"465":{"country":"AF","name":"qal'ah-ye 'abbas","lat":"34.420","long":"69.202"},"466":{"country":"AF","name":"qal'ah-ye 'abbas qalay","lat":"34.478","long":"69.105"},"467":{"country":"AF","name":"qal'ah-ye abdal","lat":"34.880","long":"68.731"},"468":{"country":"AF","name":"qal'ah-ye 'abd al wadud khan","lat":"32.761","long":"62.580"},"469":{"country":"AF","name":"qal'ah-ye 'abd ul ahmad khan","lat":"33.537","long":"68.427"},"470":{"country":"AF","name":"qal'ah-ye 'abdul 'ali","lat":"34.519","long":"69.034"},"471":{"country":"AF","name":"qal'ah-ye 'abd ul hakim","lat":"34.458","long":"69.256"},"472":{"country":"AF","name":"qal'ah-ye 'abdul khan","lat":"31.686","long":"67.375"},"473":{"country":"AF","name":"qal'ah-ye 'abdullah jan","lat":"33.516","long":"68.261"},"474":{"country":"AF","name":"qal'ah-ye 'abdullah","lat":"34.457","long":"70.352"},"475":{"country":"AF","name":"qal'ah-ye 'abd ul muhammad","lat":"34.496","long":"69.179"},"476":{"country":"AF","name":"qal'ah-ye 'abdul","lat":"34.276","long":"66.930"},"477":{"country":"AF","name":"qal'ah-ye 'abdul ra'uf","lat":"34.366","long":"69.216"},"478":{"country":"AF","name":"qal'ah-ye 'abdul wadud khan","lat":"32.761","long":"62.580"},"479":{"country":"AF","name":"qal'ah-ye 'abd ur rashid","lat":"34.073","long":"69.022"},"480":{"country":"AF","name":"qal'ah-ye 'abd ur ra'uf","lat":"34.366","long":"69.216"},"481":{"country":"AF","name":"qal'ah-ye abo khan","lat":"33.089","long":"68.098"},"482":{"country":"AF","name":"qal'ah-ye abu khan","lat":"33.089","long":"68.098"},"483":{"country":"AF","name":"qal'ah-ye adam khan","lat":"34.464","long":"69.270"},"484":{"country":"AF","name":"qal'ah-ye aday","lat":"34.580","long":"68.986"},"485":{"country":"AF","name":"qal'ah-ye adham","lat":"34.618","long":"65.312"},"486":{"country":"AF","name":"qal'ah-ye afandi","lat":"34.424","long":"70.360"},"487":{"country":"AF","name":"qal'ah-ye afghanan","lat":"34.487","long":"69.278"},"488":{"country":"AF","name":"qal'ah-yeafghanha","lat":"34.493","long":"69.143"},"489":{"country":"AF","name":"qal'ah-ye afghan","lat":"35.181","long":"69.337"},"490":{"country":"AF","name":"qal'ah-ye afroz","lat":"33.973","long":"67.466"},"491":{"country":"AF","name":"qal'ah-ye afzal","lat":"34.628","long":"64.550"},"492":{"country":"AF","name":"qal'ah-ye afzal","lat":"34.485","long":"69.219"},"493":{"country":"AF","name":"qal'ah-ye afzal","lat":"30.269","long":"61.774"},"494":{"country":"AF","name":"qal'ah-ye aghali","lat":"34.433","long":"69.126"},"495":{"country":"AF","name":"qal'ah-ye ahangaran","lat":"32.893","long":"69.152"},"496":{"country":"AF","name":"qal'ah-ye ahangar","lat":"34.351","long":"68.835"},"497":{"country":"AF","name":"qal'ah-ye ahan","lat":"34.026","long":"64.885"},"498":{"country":"AF","name":"qal'ah-ye ahmad 'ali","lat":"33.193","long":"67.767"},"499":{"country":"AF","name":"qal'ah-ye ahmad khan","lat":"34.924","long":"69.271"},"500":{"country":"AF","name":"qal'ah-ye ahmad shah","lat":"34.461","long":"69.279"},"501":{"country":"AF","name":"qal'ah-ye 'ajab khan","lat":"36.866","long":"66.784"},"502":{"country":"AF","name":"qal'ah-ye ajiri","lat":"36.729","long":"67.063"},"503":{"country":"AF","name":"qal'ah-ye aka","lat":"33.202","long":"67.830"},"504":{"country":"AF","name":"qal'ah-ye akhund","lat":"34.383","long":"66.888"},"505":{"country":"AF","name":"qal'ah-ye akhund","lat":"33.587","long":"68.027"},"506":{"country":"AF","name":"qal'ah-ye akhund","lat":"34.486","long":"69.117"},"507":{"country":"AF","name":"qal'ah-ye akhund","lat":"34.622","long":"70.219"},"508":{"country":"AF","name":"qal'ah-ye akhundzadah","lat":"34.518","long":"69.113"},"509":{"country":"AF","name":"qal'ah-ye aklay","lat":"33.520","long":"68.643"},"510":{"country":"AF","name":"qal'ah-ye 'alam","lat":"33.455","long":"68.516"},"511":{"country":"AF","name":"qal'ah-ye 'alam","lat":"34.472","long":"69.251"},"512":{"country":"AF","name":"qal'ah-ye 'ali bayg","lat":"34.726","long":"67.689"},"513":{"country":"AF","name":"qal'ah-ye 'ali beg","lat":"34.726","long":"67.689"},"514":{"country":"AF","name":"qal'ah-ye alif","lat":"34.486","long":"69.107"},"515":{"country":"AF","name":"qal'ah-ye 'ali jan","lat":"33.357","long":"67.125"},"516":{"country":"AF","name":"qal'ah-ye 'ali khan","lat":"34.067","long":"69.020"},"517":{"country":"AF","name":"qal'ah-ye 'ali mardan","lat":"34.480","long":"69.113"},"518":{"country":"AF","name":"qal'ah-ye 'ali","lat":"33.395","long":"68.404"},"519":{"country":"AF","name":"qal'ah-ye 'ali shah khan","lat":"34.484","long":"69.161"},"520":{"country":"AF","name":"qal'ah-ye allah nawaz","lat":"34.394","long":"70.285"},"521":{"country":"AF","name":"qal'ah-ye allah nazar","lat":"34.394","long":"70.285"},"522":{"country":"AF","name":"qal'ah-ye allah nur","lat":"36.688","long":"66.684"},"523":{"country":"AF","name":"qal'ah-ye allah rahm","lat":"34.819","long":"69.211"},"524":{"country":"AF","name":"qal'ah-ye amak","lat":"34.747","long":"67.790"},"525":{"country":"AF","name":"qal'ah-ye aman","lat":"34.487","long":"69.134"},"526":{"country":"AF","name":"qal'ah-ye amin","lat":"31.566","long":"66.357"},"527":{"country":"AF","name":"qal'ah-ye amirdad","lat":"34.550","long":"69.013"},"528":{"country":"AF","name":"qal'ah-ye amir muhammad khan","lat":"32.658","long":"68.219"},"529":{"country":"AF","name":"qal'ah-ye amir","lat":"34.550","long":"69.013"},"530":{"country":"AF","name":"qal'ah-ye amir","lat":"30.294","long":"61.942"},"531":{"country":"AF","name":"qal'ah-ye amr ud din","lat":"33.83","long":"68.964"},"532":{"country":"AF","name":"qal'ah-ye aqa","lat":"34.568","long":"68.998"},"533":{"country":"AF","name":"qal'ah-ye 'arab jan","lat":"34.536","long":"70.261"},"534":{"country":"AF","name":"qal'ah-ye arbab 'ali","lat":"33.336","long":"62.210"},"535":{"country":"AF","name":"qal'ah-ye arbab faqir","lat":"34.208","long":"62.082"},"536":{"country":"AF","name":"qal'ah-ye arbab","lat":"32.364","long":"62.117"},"537":{"country":"AF","name":"qal'ah-ye arbab","lat":"33.576","long":"68.380"},"538":{"country":"AF","name":"qal'ah-ye arezo","lat":"33.455","long":"68.494"},"539":{"country":"AF","name":"qal'ah-ye arjal","lat":"33.602","long":"69.223"},"540":{"country":"AF","name":"qal'ah-ye aryal","lat":"33.602","long":"69.223"},"541":{"country":"AF","name":"qal'ah-ye 'ashor","lat":"33.175","long":"67.866"},"542":{"country":"AF","name":"qal'ah-ye 'ashrat","lat":"34.440","long":"69.146"},"543":{"country":"AF","name":"qal'ah-ye 'askar","lat":"34.527","long":"69.097"},"544":{"country":"AF","name":"qal'ah-ye 'asmatullah","lat":"34.500","long":"70.288"},"545":{"country":"AF","name":"qal'ah-ye asun","lat":"34.709","long":"68.491"},"546":{"country":"AF","name":"qal'ah-ye 'ata khan","lat":"35.097","long":"69.398"},"547":{"country":"AF","name":"qal'ah-ye atam","lat":"34.556","long":"68.936"},"548":{"country":"AF","name":"qal'ah-ye 'ata muhammad khan","lat":"33.065","long":"68.050"},"549":{"country":"AF","name":"qal'ah-ye ata muhammad khan","lat":"34.4","long":"69.110"},"550":{"country":"AF","name":"qal'ah-ye 'ata","lat":"34.484","long":"69.131"},"551":{"country":"AF","name":"qal'ah-ye 'ata","lat":"34.763","long":"68.490"},"552":{"country":"AF","name":"qal'ah-ye atek","lat":"34.558","long":"70.564"},"553":{"country":"AF","name":"qal'ah-ye atik","lat":"34.688","long":"70.574"},"554":{"country":"AF","name":"qal'ah-ye awkhar","lat":"31.301","long":"62.261"},"555":{"country":"AF","name":"qal'ah-ye 'aynullah","lat":"34.484","long":"69.111"},"556":{"country":"AF","name":"qal'ah-ye ayshan","lat":"35.763","long":"68.905"},"557":{"country":"AF","name":"qal'ah-ye ayyub","lat":"34.050","long":"69.015"},"558":{"country":"AF","name":"qal'ah-ye azad","lat":"33.620","long":"68.42"},"559":{"country":"AF","name":"qal'ah-ye azad","lat":"34.483","long":"69.055"},"560":{"country":"AF","name":"qal'ah-ye 'azim khan","lat":"34.328","long":"62.263"},"561":{"country":"AF","name":"qal'ah-ye a'zim khan","lat":"34.485","long":"69.051"},"562":{"country":"AF","name":"qal'ah-ye babagan","lat":"34.527","long":"70.268"},"563":{"country":"AF","name":"qal'ah-ye babaji","lat":"34.484","long":"69.047"},"564":{"country":"AF","name":"qal'ah-ye baba","lat":"34.230","long":"67.996"},"565":{"country":"AF","name":"qal'ah-ye babu","lat":"34.486","long":"69.094"},"566":{"country":"AF","name":"qal'ah-ye badak","lat":"34.418","long":"67.047"},"567":{"country":"AF","name":"qal'ah-ye badal","lat":"34.452","long":"69.131"},"568":{"country":"AF","name":"qal'ah-ye badam","lat":"32.528","long":"64.455"},"569":{"country":"AF","name":"qal'ah-ye baday","lat":"35.815","long":"68.808"},"570":{"country":"AF","name":"qal'ah-ye baghalak","lat":"34.446","long":"67.273"},"571":{"country":"AF","name":"qal'ah-ye baghal","lat":"34.788","long":"68.476"},"572":{"country":"AF","name":"qal'ah-ye baghlak","lat":"34.469","long":"69.202"},"573":{"country":"AF","name":"qal'ah-ye baghwanakha","lat":"34.477","long":"69.096"},"574":{"country":"AF","name":"qal'ah-ye bahadur khan","lat":"34.476","long":"69.098"},"575":{"country":"AF","name":"qal'ah-ye bahadur","lat":"33.934","long":"68.985"},"576":{"country":"AF","name":"qal'ah-ye bahramiulddin","lat":"34.481","long":"69.278"},"577":{"country":"AF","name":"qal'ah-ye bahram ud din","lat":"34.481","long":"69.278"},"578":{"country":"AF","name":"qal'ah-ye bahramulddin","lat":"34.481","long":"69.278"},"579":{"country":"AF","name":"qal'ah-ye ba'i","lat":"34.736","long":"70.122"},"580":{"country":"AF","name":"qal'ah-ye bakhtiari","lat":"34.384","long":"67.995"},"581":{"country":"AF","name":"qal'ah-ye bakhtyar","lat":"34.472","long":"69.108"},"582":{"country":"AF","name":"qal'ah-ye bala","lat":"33.303","long":"61.934"},"583":{"country":"AF","name":"qal'ah-ye bala","lat":"35.150","long":"69.279"},"584":{"country":"AF","name":"qal'ah-ye bandah","lat":"34.462","long":"70.522"},"585":{"country":"AF","name":"qal'ah-ye bandar","lat":"35.329","long":"64.571"},"586":{"country":"AF","name":"qal'ah-ye baqay","lat":"34.509","long":"68.967"},"587":{"country":"AF","name":"qal'ah-ye baqi","lat":"34.312","long":"68.109"},"588":{"country":"AF","name":"qal'ah-ye baqi","lat":"35.104","long":"69.165"},"589":{"country":"AF","name":"qal'ah-ye baqir","lat":"34.459","long":"68.612"},"590":{"country":"AF","name":"qal'ah-ye barakat","lat":"32.951","long":"69.173"},"591":{"country":"AF","name":"qal'ah-ye bara","lat":"33.248","long":"68.236"},"592":{"country":"AF","name":"qal'ah-ye barat","lat":"34.444","long":"69.077"},"593":{"country":"AF","name":"qal'ah-ye barat","lat":"34.698","long":"68.307"},"594":{"country":"AF","name":"qal'ah-ye bar panj","lat":"37.558","long":"71.482"},"595":{"country":"AF","name":"qal'ah-ye barqi","lat":"34.496","long":"69.226"},"596":{"country":"AF","name":"qal'ah-ye bashayr","lat":"33.464","long":"68.508"},"597":{"country":"AF","name":"qal'ah-ye bashir","lat":"33.464","long":"68.508"},"598":{"country":"AF","name":"qal'ah-ye bawar","lat":"34.391","long":"69.139"},"599":{"country":"AF","name":"qal'ah-ye bawu","lat":"32.812","long":"63.687"},"600":{"country":"AF","name":"qal'ah-ye baydu","lat":"34.474","long":"69.106"},"601":{"country":"AF","name":"qal'ah-ye bayran","lat":"34.383","long":"66.918"},"602":{"country":"AF","name":"qal'ah-ye bazid","lat":"34.958","long":"69.190"},"603":{"country":"AF","name":"qal'ah-ye baz","lat":"34.806","long":"69.159"},"604":{"country":"AF","name":"qal'ah-ye beland","lat":"34.987","long":"69.282"},"605":{"country":"AF","name":"qal'ah-ye bibi","lat":"34.638","long":"69.086"},"606":{"country":"AF","name":"qal'ah-ye bibi shamsi jan","lat":"34.450","long":"69.134"},"607":{"country":"AF","name":"qal'ah-ye bihbud","lat":"32.403","long":"62.110"},"608":{"country":"AF","name":"qal'ah-ye biland ab","lat":"34.031","long":"69.016"},"609":{"country":"AF","name":"qal'ah-ye biland","lat":"33.614","long":"68.299"},"610":{"country":"AF","name":"qal'ah-ye biland","lat":"32.856","long":"67.421"},"611":{"country":"AF","name":"qal'ah-ye biland","lat":"34.987","long":"69.282"},"612":{"country":"AF","name":"qal'ah-ye bostan","lat":"33.173","long":"67.868"},"613":{"country":"AF","name":"qal'ah-ye burgut","lat":"33.232","long":"68.062"},"614":{"country":"AF","name":"qal'ah-ye burj-e sangi","lat":"31.558","long":"67.618"},"615":{"country":"AF","name":"qal'ah-ye chah ghar","lat":"34.490","long":"66.126"},"616":{"country":"AF","name":"qal'ah-ye chakhansur","lat":"31.180","long":"62.051"},"617":{"country":"AF","name":"qal'ah-ye chal","lat":"34.493","long":"66.932"},"618":{"country":"AF","name":"qal'ah-ye chaman","lat":"34.358","long":"69.206"},"619":{"country":"AF","name":"qal'ah-ye chetgar","lat":"34.494","long":"69.094"},"620":{"country":"AF","name":"qal'ah-ye chopan bashi","lat":"34.554","long":"69.202"},"621":{"country":"AF","name":"qal'ah-ye dadar","lat":"34.798","long":"67.778"},"622":{"country":"AF","name":"qal'ah-ye dad muhammad","lat":"33.110","long":"68.096"},"623":{"country":"AF","name":"qal'ah-ye dah bashi","lat":"33.576","long":"69.190"},"624":{"country":"AF","name":"qal'ah-ye dalil","lat":"34.290","long":"69.126"},"625":{"country":"AF","name":"qal'ah-ye darah","lat":"34.479","long":"69.050"},"626":{"country":"AF","name":"qal'ah-ye darbaz","lat":"34.480","long":"69.290"},"627":{"country":"AF","name":"qal'ah-ye darwaysh","lat":"34.676","long":"61.189"},"628":{"country":"AF","name":"qal'ah-ye dasht","lat":"34.013","long":"67.514"},"629":{"country":"AF","name":"qal'ah-ye dasht","lat":"34.241","long":"62.950"},"630":{"country":"AF","name":"qal'ah-ye dasht","lat":"34.848","long":"69.714"},"631":{"country":"AF","name":"qal'ah-ye dastur","lat":"34.488","long":"69.106"},"632":{"country":"AF","name":"qal'ah-ye daywanah","lat":"34.327","long":"68.723"},"633":{"country":"AF","name":"qal'ah-ye daywanah","lat":"34.896","long":"69.254"},"634":{"country":"AF","name":"qal'ah-ye dehha","lat":"34.482","long":"69.050"},"635":{"country":"AF","name":"qal'ah-ye dewanah","lat":"34.896","long":"69.254"},"636":{"country":"AF","name":"qal'ah-ye dilbar","lat":"34.547","long":"69.005"},"637":{"country":"AF","name":"qal'ah-ye dildar","lat":"34.318","long":"62.268"},"638":{"country":"AF","name":"qal'ah-ye dopah","lat":"34.455","long":"69.220"},"639":{"country":"AF","name":"qal'ah-ye do roz","lat":"34.315","long":"68.098"},"640":{"country":"AF","name":"qal'ah-ye dost muhammad","lat":"33.08","long":"68.946"},"641":{"country":"AF","name":"qal'ah-ye dowlati","lat":"36.217","long":"68.837"},"642":{"country":"AF","name":"qal'ah-ye dowlat","lat":"34.180","long":"69.137"},"643":{"country":"AF","name":"qal'ah-ye dukhtar","lat":"33.120","long":"64.135"},"644":{"country":"AF","name":"qal'ah-ye duzdu","lat":"34.158","long":"66.540"},"645":{"country":"AF","name":"qal'ah-ye faiz","lat":"34.926","long":"68.177"},"646":{"country":"AF","name":"qal'ah-ye faqir shah","lat":"35.031","long":"69.194"},"647":{"country":"AF","name":"qal'ah-ye farash","lat":"34.485","long":"69.105"},"648":{"country":"AF","name":"qal'ah-ye farhad","lat":"34.798","long":"69.146"},"649":{"country":"AF","name":"qal'ah-ye farsi","lat":"33.785","long":"63.247"},"650":{"country":"AF","name":"qal'ah-ye fateh khan","lat":"34.538","long":"69.199"},"651":{"country":"AF","name":"qal'ah-ye fath","lat":"30.571","long":"61.839"},"652":{"country":"AF","name":"qal'ah-ye fathullah khan","lat":"34.493","long":"69.055"},"653":{"country":"AF","name":"qal'ah-ye fathullah","lat":"34.540","long":"69.169"},"654":{"country":"AF","name":"qal'ah-ye fatuh","lat":"34.439","long":"69.145"},"655":{"country":"AF","name":"qal'ah-ye fayz muhammad khan","lat":"34.503","long":"70.306"},"656":{"country":"AF","name":"qal'ah-ye fazili","lat":"33.638","long":"69.217"},"657":{"country":"AF","name":"qal'ah-ye faziluddin","lat":"34.400","long":"70.292"},"658":{"country":"AF","name":"qal'ah-ye fazl ud din","lat":"34.400","long":"70.292"},"659":{"country":"AF","name":"qal'ah-ye fazl ur rahman","lat":"34.431","long":"69.097"},"660":{"country":"AF","name":"qal'ah-ye firqah mesher","lat":"34.470","long":"69.138"},"661":{"country":"AF","name":"qal'ah-ye firqah mishr","lat":"34.461","long":"69.254"},"662":{"country":"AF","name":"qal'ah-ye gaday","lat":"34.789","long":"67.407"},"663":{"country":"AF","name":"qal'ah-ye gal","lat":"35.054","long":"70.956"},"664":{"country":"AF","name":"qal'ah-ye gaz","lat":"32.003","long":"64.783"},"665":{"country":"AF","name":"qal'ah-ye ghafur","lat":"33.382","long":"68.333"},"666":{"country":"AF","name":"qal'ah-ye ghaibi","lat":"34.478","long":"69.158"},"667":{"country":"AF","name":"qal'ah-ye ghaibullah","lat":"34.453","long":"69.137"},"668":{"country":"AF","name":"qal'ah-ye ghaighonak","lat":"34.665","long":"66.200"},"669":{"country":"AF","name":"qal'ah-ye ghamai","lat":"34.803","long":"67.788"},"670":{"country":"AF","name":"qal'ah-ye ghani","lat":"34.999","long":"69.596"},"671":{"country":"AF","name":"qal'ah-ye gharib","lat":"33.601","long":"68.286"},"672":{"country":"AF","name":"qal'ah-ye ghighunak","lat":"34.665","long":"66.200"},"673":{"country":"AF","name":"qal'ah-ye gholah","lat":"34.536","long":"67.285"},"674":{"country":"AF","name":"qal'ah-ye ghowchak-e koralah","lat":"33.840","long":"67.760"},"675":{"country":"AF","name":"qal'ah-ye ghows ud din","lat":"34.467","long":"69.149"},"676":{"country":"AF","name":"qal'ah-ye ghuchi","lat":"34.737","long":"62.289"},"677":{"country":"AF","name":"qal'ah-ye ghulam beg","lat":"34.448","long":"66.988"},"678":{"country":"AF","name":"qal'ah-ye ghulam haidar khan","lat":"34.481","long":"69.281"},"679":{"country":"AF","name":"qal'ah-ye ghulam hasan beg","lat":"35.286","long":"66.228"},"680":{"country":"AF","name":"qal'ah-ye ghulam husain","lat":"33.180","long":"67.856"},"681":{"country":"AF","name":"qal'ah-ye ghulam majid","lat":"34.464","long":"69.280"},"682":{"country":"AF","name":"qal'ah-ye ghulam muhammad","lat":"34.477","long":"69.278"},"683":{"country":"AF","name":"qal'ah-ye ghulam 'omar khan","lat":"34.468","long":"69.259"},"684":{"country":"AF","name":"qal'ah-ye ghulamo","lat":"34.575","long":"69.112"},"685":{"country":"AF","name":"qal'ah-ye ghulam","lat":"34.479","long":"69.253"},"686":{"country":"AF","name":"qal'ah-ye ghulam","lat":"34.139","long":"68.429"},"687":{"country":"AF","name":"qal'ah-ye ghulam sakhi","lat":"32.374","long":"62.152"},"688":{"country":"AF","name":"qal'ah-ye ghulam shah","lat":"34.998","long":"69.249"},"689":{"country":"AF","name":"qal'ah-ye ghulam shakhi","lat":"34.459","long":"69.134"},"690":{"country":"AF","name":"qal'ah-ye gim","lat":"32.621","long":"63.671"},"691":{"country":"AF","name":"qal'ah-ye girdab","lat":"36.934","long":"69.705"},"692":{"country":"AF","name":"qal'ah-ye girdak","lat":"34.860","long":"62.054"},"693":{"country":"AF","name":"qal'ah-ye giro","lat":"34.267","long":"67.654"},"694":{"country":"AF","name":"qal'ah-ye giro","lat":"33.116","long":"67.774"},"695":{"country":"AF","name":"qal'ah-ye godar","lat":"34.837","long":"69.206"},"696":{"country":"AF","name":"qal'ah-ye golai","lat":"34.923","long":"69.243"},"697":{"country":"AF","name":"qal'ah-yegoshi","lat":"34.261","long":"66.855"},"698":{"country":"AF","name":"qal'ah-ye gudam","lat":"32.817","long":"67.759"},"699":{"country":"AF","name":"qal'ah-ye gudir","lat":"34.837","long":"69.206"},"700":{"country":"AF","name":"qal'ah-ye gulabiha","lat":"34.345","long":"62.062"},"701":{"country":"AF","name":"qal'ah-ye gulab shah","lat":"33.067","long":"68.961"},"702":{"country":"AF","name":"qal'ah-ye gul afzal","lat":"34.473","long":"69.208"},"703":{"country":"AF","name":"qal'ah-ye gul agha","lat":"34.459","long":"69.151"},"704":{"country":"AF","name":"qal'ah-ye gul ahmad","lat":"34.784","long":"70.105"},"705":{"country":"AF","name":"qal'ah-ye gulay","lat":"34.923","long":"69.243"},"706":{"country":"AF","name":"qal'ah-ye gulbaz","lat":"34.543","long":"69.327"},"707":{"country":"AF","name":"qal'ah-ye gul faqir","lat":"34.472","long":"69.254"},"708":{"country":"AF","name":"qal'ah-ye gul muhammad khan","lat":"32.504","long":"62.263"},"709":{"country":"AF","name":"qal'ah-ye gul muhammad","lat":"36.733","long":"67.219"},"710":{"country":"AF","name":"qal'ah-ye gul","lat":"32.337","long":"65.101"},"711":{"country":"AF","name":"qal'ah-ye gul roz","lat":"34.474","long":"69.238"},"712":{"country":"AF","name":"qal'ah-ye gunbad","lat":"33.403","long":"67.445"},"713":{"country":"AF","name":"qal'ah-ye habib khan","lat":"34.362","long":"61.986"},"714":{"country":"AF","name":"qal'ah-ye hafizullah nawabi","lat":"34.460","long":"69.149"},"715":{"country":"AF","name":"qal'ah-ye haidar","lat":"34.586","long":"68.169"},"716":{"country":"AF","name":"qal'ah-ye hajat","lat":"33.915","long":"68.096"},"717":{"country":"AF","name":"qal'ah-ye haji 'abd ul fatah","lat":"34.452","long":"69.153"},"718":{"country":"AF","name":"qal'ah-ye haji 'abd ul jalil","lat":"34.456","long":"69.152"},"719":{"country":"AF","name":"qal'ah-ye haji 'abd ul manan","lat":"34.457","long":"69.151"},"720":{"country":"AF","name":"qal'ah-ye haji 'abd ul qadir","lat":"34.424","long":"69.115"},"721":{"country":"AF","name":"qal'ah-ye haji 'abd ul wahid","lat":"34.461","long":"69.254"},"722":{"country":"AF","name":"qal'ah-ye haji akhtar","lat":"34.450","long":"69.120"},"723":{"country":"AF","name":"qal'ah-ye hajian","lat":"34.552","long":"70.262"},"724":{"country":"AF","name":"qal'ah-ye haji baha ud din","lat":"33.790","long":"68.941"},"725":{"country":"AF","name":"qal'ah-ye haji gulbat","lat":"34.536","long":"66.984"},"726":{"country":"AF","name":"qal'ah-ye hajiha","lat":"34.395","long":"69.139"},"727":{"country":"AF","name":"qal'ah-ye haji karam","lat":"33.382","long":"62.307"},"728":{"country":"AF","name":"qal'ah-ye haji karim","lat":"34.499","long":"69.304"},"729":{"country":"AF","name":"qal'ah-ye haji khan muhammad","lat":"32.371","long":"62.081"},"730":{"country":"AF","name":"qal'ah-ye haji khan muhammad","lat":"34.425","long":"69.117"},"731":{"country":"AF","name":"qal'ah-ye haji muhammad-afzal khan","lat":"34.649","long":"69.211"},"732":{"country":"AF","name":"qal'ah-ye haji muhammad husain","lat":"32.380","long":"62.138"},"733":{"country":"AF","name":"qal'ah-ye haji musa","lat":"32.673","long":"62.450"},"734":{"country":"AF","name":"qal'ah-ye haji nur muhammad","lat":"34.448","long":"69.133"},"735":{"country":"AF","name":"qal'ah-ye haji 'obidullah","lat":"34.526","long":"70.290"},"736":{"country":"AF","name":"qal'ah-ye haji 'omar khan","lat":"34.519","long":"70.291"},"737":{"country":"AF","name":"qal'ah-ye haji","lat":"33.262","long":"67.780"},"738":{"country":"AF","name":"qal'ah-ye haji","lat":"34.288","long":"69.954"},"739":{"country":"AF","name":"qal'ah-ye haji sahib","lat":"34.428","long":"70.335"},"740":{"country":"AF","name":"qal'ah-ye haji shahbaz","lat":"34.459","long":"69.149"},"741":{"country":"AF","name":"qal'ah-ye haji shirin","lat":"32.830","long":"61.964"},"742":{"country":"AF","name":"qal'ah-ye haji zahir","lat":"34.496","long":"69.180"},"743":{"country":"AF","name":"qal'ah-ye haji za khel","lat":"34.476","long":"69.258"},"744":{"country":"AF","name":"qal'ah-ye hakimi","lat":"35.991","long":"69.505"},"745":{"country":"AF","name":"qal'ah-ye hakim","lat":"34.602","long":"68.975"},"746":{"country":"AF","name":"qal'ah-ye hakim","lat":"34.040","long":"69.047"},"747":{"country":"AF","name":"qal'ah-ye halim","lat":"34.730","long":"70.135"},"748":{"country":"AF","name":"qal'ah-ye halim","lat":"33.574","long":"69.255"},"749":{"country":"AF","name":"qal'ah-ye hasan-e bala","lat":"34.464","long":"69.220"},"750":{"country":"AF","name":"qal'ah-ye hasan-e pa'in","lat":"34.466","long":"69.248"},"751":{"country":"AF","name":"qal'ah-ye hasan khan","lat":"34.313","long":"62.055"},"752":{"country":"AF","name":"qal'ah-ye hasan khelha","lat":"34.493","long":"69.280"},"753":{"country":"AF","name":"qal'ah-ye hasan","lat":"34.382","long":"69.640"},"754":{"country":"AF","name":"qal'ah-ye hasan","lat":"34.467","long":"70.529"},"755":{"country":"AF","name":"qal'ah-ye hashmat khan","lat":"34.491","long":"69.192"},"756":{"country":"AF","name":"qal'ah-ye hazarahha","lat":"36.530","long":"70.258"},"757":{"country":"AF","name":"qal'ah-ye hazarahha","lat":"34.967","long":"69.293"},"758":{"country":"AF","name":"qal'ah-ye hazarah","lat":"34.734","long":"69.045"},"759":{"country":"AF","name":"qal'ah-ye hazar jirib","lat":"34.248","long":"62.148"},"760":{"country":"AF","name":"qal'ah-ye hazrat sahib","lat":"34.500","long":"70.305"},"761":{"country":"AF","name":"qal'ah-ye hezarahha","lat":"34.967","long":"69.293"},"762":{"country":"AF","name":"qal'ah-ye hindu","lat":"32.249","long":"62.445"},"763":{"country":"AF","name":"qal'ah-ye hindu","lat":"34.421","long":"70.491"},"764":{"country":"AF","name":"qal'ah-ye hindu","lat":"33.336","long":"69.939"},"765":{"country":"AF","name":"qal'ah-ye hosayn bayg","lat":"34.513","long":"66.900"},"766":{"country":"AF","name":"qal'ah-ye hosayn","lat":"34.482","long":"69.053"},"767":{"country":"AF","name":"qal'ah-ye husain bayg","lat":"34.513","long":"66.900"},"768":{"country":"AF","name":"qal'ah-ye husain","lat":"36.704","long":"66.667"},"769":{"country":"AF","name":"qal'ah-ye husain","lat":"34.733","long":"70.131"},"770":{"country":"AF","name":"qal'ah-ye ibrahim khan","lat":"31.180","long":"62.051"},"771":{"country":"AF","name":"qal'ah-ye ikhtiar","lat":"33.487","long":"67.991"},"772":{"country":"AF","name":"qal'ah-ye intifa'at","lat":"34.681","long":"69.157"},"773":{"country":"AF","name":"qal'ah-ye intifat","lat":"34.681","long":"69.157"},"774":{"country":"AF","name":"qal'ah-ye iran","lat":"35.785","long":"66.658"},"775":{"country":"AF","name":"qal'ah-ye isfand yar","lat":"34.445","long":"69.130"},"776":{"country":"AF","name":"'qal'ah-ye 'ishrat","lat":"33.534","long":"68.440"},"777":{"country":"AF","name":"qal'ah-ye jabar khan","lat":"33.104","long":"68.072"},"778":{"country":"AF","name":"qal'ah-ye jabarkhan","lat":"34.532","long":"69.350"},"779":{"country":"AF","name":"qal'ah-ye jabar","lat":"34.499","long":"68.807"},"780":{"country":"AF","name":"qal'ah-ye jabbarkhan","lat":"34.532","long":"69.350"},"781":{"country":"AF","name":"qal'ah-ye ja'far","lat":"34.815","long":"67.160"},"782":{"country":"AF","name":"qal'ah-ye ja'far","lat":"34.399","long":"69.157"},"783":{"country":"AF","name":"qal'ah-ye jalah","lat":"34.909","long":"69.479"},"784":{"country":"AF","name":"qal'ah-ye jalal","lat":"34.329","long":"68.698"},"785":{"country":"AF","name":"qal'ah-ye jamal","lat":"34.373","long":"61.764"},"786":{"country":"AF","name":"qal'ah-ye jamil","lat":"34.897","long":"68.738"},"787":{"country":"AF","name":"qal'ah-ye janan","lat":"34.350","long":"69.169"},"788":{"country":"AF","name":"qal'ah-ye janan","lat":"34.453","long":"70.466"},"789":{"country":"AF","name":"qal'ah-ye jandah","lat":"34.505","long":"68.900"},"790":{"country":"AF","name":"qal'ah-ye jangal","lat":"34.374","long":"65.942"},"791":{"country":"AF","name":"qal'ah-ye jangi","lat":"34.538","long":"69.187"},"792":{"country":"AF","name":"qal'ah-ye jan khan","lat":"34.413","long":"69.115"},"793":{"country":"AF","name":"qal'ah-ye jawad","lat":"34.523","long":"69.114"},"794":{"country":"AF","name":"qal'ah-ye jogi","lat":"34.486","long":"69.127"},"795":{"country":"AF","name":"qal'ah-ye jowz","lat":"33.539","long":"68.473"},"796":{"country":"AF","name":"qal'ah-ye joy badal","lat":"34.479","long":"66.243"},"797":{"country":"AF","name":"qal'ah-ye jugi","lat":"34.633","long":"70.231"},"798":{"country":"AF","name":"qal'ah-ye julgah","lat":"34.058","long":"69.038"},"799":{"country":"AF","name":"qal'ah-ye jum'ah khan","lat":"34.461","long":"69.139"},"800":{"country":"AF","name":"qal'ah-ye jum'ah","lat":"34.077","long":"69.036"},"801":{"country":"AF","name":"qal'ah-ye kababi","lat":"34.449","long":"69.115"},"802":{"country":"AF","name":"qal'ah-ye kafiran","lat":"33.004","long":"63.847"},"803":{"country":"AF","name":"qal'ah-ye kah","lat":"32.142","long":"61.446"},"804":{"country":"AF","name":"qal'ah-ye kako","lat":"33.746","long":"68.305"},"805":{"country":"AF","name":"qal'ah-ye kalan","lat":"34.484","long":"69.052"},"806":{"country":"AF","name":"qal'ah-ye kalantar","lat":"33.508","long":"68.438"},"807":{"country":"AF","name":"qal'ah-ye karam","lat":"33.294","long":"62.136"},"808":{"country":"AF","name":"qal'ah-ye karash now","lat":"34.41","long":"67.194"},"809":{"country":"AF","name":"qal'ah-ye kar guzar","lat":"34.444","long":"69.128"},"810":{"country":"AF","name":"qal'ah-ye karim khan","lat":"34.231","long":"62.619"},"811":{"country":"AF","name":"qal'ah-ye karim","lat":"33.377","long":"67.994"},"812":{"country":"AF","name":"qal'ah-ye karim","lat":"34.493","long":"69.301"},"813":{"country":"AF","name":"qal'ah-ye karim","lat":"34.447","long":"68.450"},"814":{"country":"AF","name":"qal'ah-ye kashif","lat":"34.526","long":"69.070"},"815":{"country":"AF","name":"qal'ah-ye katah","lat":"34.386","long":"66.888"},"816":{"country":"AF","name":"qal'ah-ye kayan","lat":"35.634","long":"68.427"},"817":{"country":"AF","name":"qal'ah-ye kazim","lat":"34.459","long":"69.147"},"818":{"country":"AF","name":"qal'ah-ye khair","lat":"34.452","long":"69.123"},"819":{"country":"AF","name":"qal'ah-ye khalak","lat":"34.325","long":"67.966"},"820":{"country":"AF","name":"qal'ah-ye khalifah muhammad 'ali","lat":"34.496","long":"69.180"},"821":{"country":"AF","name":"qal'ah-ye khalil","lat":"33.92","long":"68.097"},"822":{"country":"AF","name":"qal'ah-ye khalil","lat":"34.495","long":"69.268"},"823":{"country":"AF","name":"qal'ah-ye kham-e bulaq","lat":"33.856","long":"65.256"},"824":{"country":"AF","name":"qal'ah-ye kham","lat":"34.910","long":"68.652"},"825":{"country":"AF","name":"qal'ah-ye khandad","lat":"34.48","long":"69.205"},"826":{"country":"AF","name":"qal'ah-ye khangut","lat":"34.475","long":"69.092"},"827":{"country":"AF","name":"qal'ah-ye khanha","lat":"34.964","long":"69.229"},"828":{"country":"AF","name":"qal'ah-ye khanjar","lat":"34.995","long":"69.593"},"829":{"country":"AF","name":"qal'ah-ye khan mir","lat":"34.473","long":"69.256"},"830":{"country":"AF","name":"qal'ah-ye khan","lat":"33.845","long":"67.740"},"831":{"country":"AF","name":"qal'ah-ye khan","lat":"34.251","long":"62.138"},"832":{"country":"AF","name":"qal'ah-ye khan","lat":"34.478","long":"69.052"},"833":{"country":"AF","name":"qal'ah-ye khan","lat":"34.299","long":"67.953"},"834":{"country":"AF","name":"qal'ah-ye khan","lat":"34.683","long":"70.241"},"835":{"country":"AF","name":"qal'ah-ye khashah","lat":"33.596","long":"68.301"},"836":{"country":"AF","name":"qal'ah-ye khatir-e bibi mahru","lat":"34.547","long":"69.192"},"837":{"country":"AF","name":"qal'ah-ye khatir","lat":"34.547","long":"69.192"},"838":{"country":"AF","name":"qal'ah-ye khatun","lat":"35.990","long":"65.831"},"839":{"country":"AF","name":"qal'ah-ye khaybar","lat":"33.681","long":"66.642"},"840":{"country":"AF","name":"qal'ah-ye khizriha","lat":"36.005","long":"68.064"},"841":{"country":"AF","name":"qal'ah-ye khok joy","lat":"34.050","long":"68.067"},"842":{"country":"AF","name":"qal'ah-ye khuda'i","lat":"34.730","long":"63.092"},"843":{"country":"AF","name":"qal'ah-ye khuda yar","lat":"34.344","long":"69.423"},"844":{"country":"AF","name":"qal'ah-ye khumari","lat":"32.832","long":"67.798"},"845":{"country":"AF","name":"qal'ah-ye khushk","lat":"32.766","long":"67.877"},"846":{"country":"AF","name":"qal'ah-ye khwajah ahmad","lat":"31.983","long":"61.813"},"847":{"country":"AF","name":"qal'ah-ye khwajah akbar","lat":"34.081","long":"69.030"},"848":{"country":"AF","name":"qal'ah-ye khwajaha","lat":"34.995","long":"69.171"},"849":{"country":"AF","name":"qal'ah-ye khwajah faiz","lat":"34.433","long":"69.123"},"850":{"country":"AF","name":"qal'ah-ye khwajah gul","lat":"34.554","long":"68.944"},"851":{"country":"AF","name":"qal'ah-ye khwajah habibullah","lat":"34.478","long":"69.128"},"852":{"country":"AF","name":"qal'ah-ye khwajahha","lat":"34.995","long":"69.171"},"853":{"country":"AF","name":"qal'ah-ye khwajah ni'amatullah","lat":"34.494","long":"69.145"},"854":{"country":"AF","name":"qal'ah-ye khwajah nur","lat":"34.435","long":"69.128"},"855":{"country":"AF","name":"qal'ah-ye khwajah","lat":"34.935","long":"69.207"},"856":{"country":"AF","name":"qal'ah-ye khwajah","lat":"35.705","long":"65.269"},"857":{"country":"AF","name":"qal'ah-ye kich","lat":"34.405","long":"66.683"},"858":{"country":"AF","name":"qal'ah-ye koh-e gul bagh","lat":"34.426","long":"69.093"},"859":{"country":"AF","name":"qal'ah-ye kohnah","lat":"34.971","long":"69.169"},"860":{"country":"AF","name":"qal'ah-ye kowsh","lat":"35.184","long":"64.691"},"861":{"country":"AF","name":"qal'ah-ye kuchi","lat":"34.473","long":"69.241"},"862":{"country":"AF","name":"qal'ah-ye kuf","lat":"38.041","long":"70.472"},"863":{"country":"AF","name":"qal'ah-ye kuhnah","lat":"35.975","long":"69.511"},"864":{"country":"AF","name":"qal'ah-ye kuhnah","lat":"32.615","long":"63.666"},"865":{"country":"AF","name":"qal'ah-ye kuhnah","lat":"34.242","long":"67.862"},"866":{"country":"AF","name":"qal'ah-ye kuhnah","lat":"33.584","long":"64.356"},"867":{"country":"AF","name":"qal'ah-ye kuhnah","lat":"33.287","long":"61.954"},"868":{"country":"AF","name":"qal'ah-ye kuhnah","lat":"34.971","long":"69.169"},"869":{"country":"AF","name":"qal'ah-ye kuhnah-ye raqol","lat":"33.866","long":"67.752"},"870":{"country":"AF","name":"qal'ah-ye kulah safayd","lat":"34.554","long":"69.202"},"871":{"country":"AF","name":"qal'ah-ye kulal","lat":"34.489","long":"69.108"},"872":{"country":"AF","name":"qal'ah-ye lako","lat":"34.357","long":"69.098"},"873":{"country":"AF","name":"qal'ah-ye lalah mir khan","lat":"34.994","long":"69.167"},"874":{"country":"AF","name":"qal'ah-ye lala mir khan","lat":"34.994","long":"69.167"},"875":{"country":"AF","name":"qal'ah-ye lalay","lat":"34.693","long":"68.986"},"876":{"country":"AF","name":"qal'ah-ye lali","lat":"33.625","long":"68.151"},"877":{"country":"AF","name":"qal'ah-ye langar","lat":"33.838","long":"68.155"},"878":{"country":"AF","name":"qal'ah-ye lash","lat":"33.244","long":"65.447"},"879":{"country":"AF","name":"qal'ah-ye lawang","lat":"34.436","long":"69.093"},"880":{"country":"AF","name":"qal'ah-ye logari","lat":"34.442","long":"69.133"},"881":{"country":"AF","name":"qal'ah-ye luqman","lat":"34.404","long":"69.118"},"882":{"country":"AF","name":"qal'ah-ye mahmud","lat":"33.379","long":"67.024"},"883":{"country":"AF","name":"qal'ah-ye mahmud","lat":"34.136","long":"68.425"},"884":{"country":"AF","name":"qal'ah-ye malek karim","lat":"34.500","long":"69.305"},"885":{"country":"AF","name":"qal'ah-ye malik antar","lat":"33.370","long":"64.574"},"886":{"country":"AF","name":"qal'ah-ye malik gulroz","lat":"34.513","long":"70.276"},"887":{"country":"AF","name":"qal'ah-ye malik jan dad","lat":"34.504","long":"70.265"},"888":{"country":"AF","name":"qal'ah-ye malik karim","lat":"34.500","long":"69.305"},"889":{"country":"AF","name":"qal'ah-ye malik muhammad rahim khan","lat":"34.523","long":"70.316"},"890":{"country":"AF","name":"qal'ah-ye malik qahar","lat":"34.204","long":"69.088"},"891":{"country":"AF","name":"qal'ah-ye malik","lat":"34.971","long":"69.204"},"892":{"country":"AF","name":"qal'ah-ye malik","lat":"34.453","long":"68.586"},"893":{"country":"AF","name":"qal'ah-ye malik","lat":"34.629","long":"70.217"},"894":{"country":"AF","name":"qal'ah-ye mamay","lat":"36.990","long":"69.606"},"895":{"country":"AF","name":"qal'ah-ye mamay","lat":"34.562","long":"70.233"},"896":{"country":"AF","name":"qal'ah-ye mansur","lat":"34.635","long":"70.213"},"897":{"country":"AF","name":"qal'ah-ye marah","lat":"34.282","long":"69.149"},"898":{"country":"AF","name":"qal'ah-ye ma'ruf","lat":"34.440","long":"70.356"},"899":{"country":"AF","name":"qal'ah-ye masalai","lat":"34.442","long":"69.076"},"900":{"country":"AF","name":"qal'ah-ye mashrab","lat":"35.101","long":"69.413"},"901":{"country":"AF","name":"qal'ah-ye masjidi","lat":"34.483","long":"69.137"},"902":{"country":"AF","name":"qal'ah-ye masjidi","lat":"34.317","long":"68.691"},"903":{"country":"AF","name":"qal'ah-ye maslakh","lat":"34.462","long":"70.511"},"904":{"country":"AF","name":"qal'ah-ye maykhchah gar","lat":"34.526","long":"69.195"},"905":{"country":"AF","name":"qal'ah-ye mianah","lat":"34.740","long":"67.788"},"906":{"country":"AF","name":"qal'ah-ye mianah","lat":"34.762","long":"66.199"},"907":{"country":"AF","name":"qal'ah-ye mianah","lat":"34.489","long":"69.134"},"908":{"country":"AF","name":"qal'ah-ye mir 'abbas","lat":"34.550","long":"69.206"},"909":{"country":"AF","name":"qal'ah-ye mir ahmad khan","lat":"34.213","long":"62.082"},"910":{"country":"AF","name":"qal'ah-ye mir ahmad shah","lat":"34.458","long":"69.210"},"911":{"country":"AF","name":"qal'ah-ye mirakhor","lat":"34.697","long":"70.233"},"912":{"country":"AF","name":"qal'ah-ye mirak","lat":"33.802","long":"68.946"},"913":{"country":"AF","name":"qal'ah-ye mirak","lat":"34.492","long":"70.288"},"914":{"country":"AF","name":"qal'ah-ye miram shah","lat":"35.231","long":"69.358"},"915":{"country":"AF","name":"qal'ah-ye miran","lat":"34.327","long":"69.085"},"916":{"country":"AF","name":"qal'ah-ye mira","lat":"34.228","long":"62.089"},"917":{"country":"AF","name":"qal'ah-ye mirawkhor","lat":"34.445","long":"69.123"},"918":{"country":"AF","name":"qal'ah-ye mirawkhor","lat":"34.697","long":"70.233"},"919":{"country":"AF","name":"qal'ah-ye mirji","lat":"34.224","long":"70.514"},"920":{"country":"AF","name":"qal'ah-ye mir","lat":"35.953","long":"69.651"},"921":{"country":"AF","name":"qal'ah-ye mir","lat":"33.381","long":"67.983"},"922":{"country":"AF","name":"qal'ah-ye mir","lat":"34.549","long":"68.929"},"923":{"country":"AF","name":"qal'ah-ye mir","lat":"36.448","long":"69.540"},"924":{"country":"AF","name":"qal'ah-ye mir sahib jan","lat":"34.531","long":"70.321"},"925":{"country":"AF","name":"qal'ah-ye mir samad","lat":"34.457","long":"69.152"},"926":{"country":"AF","name":"qal'ah-ye mir shikar","lat":"34.454","long":"69.139"},"927":{"country":"AF","name":"qal'ah-ye mirza 'abd ul qadir","lat":"34.457","long":"69.128"},"928":{"country":"AF","name":"qal'ah-ye mirza ahmad khan","lat":"34.439","long":"70.380"},"929":{"country":"AF","name":"qal'ah-ye mirza aslam","lat":"33.389","long":"62.302"},"930":{"country":"AF","name":"qal'ah-ye mirza azim","lat":"34.474","long":"69.078"},"931":{"country":"AF","name":"qal'ah-ye mirza ja'far","lat":"34.455","long":"69.135"},"932":{"country":"AF","name":"qal'ah-ye mirza jalal","lat":"34.984","long":"69.298"},"933":{"country":"AF","name":"qal'ah-ye mirza jalil","lat":"34.984","long":"69.298"},"934":{"country":"AF","name":"qal'ah-ye mirza khan","lat":"34.315","long":"68.691"},"935":{"country":"AF","name":"qal'ah-ye mirza","lat":"34.790","long":"69.020"},"936":{"country":"AF","name":"qal'ah-ye mirza","lat":"35.028","long":"69.257"},"937":{"country":"AF","name":"qal'ah-ye mirza shah","lat":"37.369","long":"70.901"},"938":{"country":"AF","name":"qal'ah-ye mohib","lat":"34.502","long":"69.037"},"939":{"country":"AF","name":"qal'ah-ye morad bayg","lat":"34.662","long":"69.076"},"940":{"country":"AF","name":"qal'ah-ye moradkhan","lat":"34.318","long":"68.150"},"941":{"country":"AF","name":"qal'ah-ye motah","lat":"34.386","long":"66.971"},"942":{"country":"AF","name":"qal'ah-ye motak","lat":"34.170","long":"67.011"},"943":{"country":"AF","name":"qal'ah-ye mowlawi","lat":"34.434","long":"69.122"},"944":{"country":"AF","name":"qal'ah-ye mowlawi sahib","lat":"32.829","long":"61.953"},"945":{"country":"AF","name":"qal'ah-ye mowlawi sahib","lat":"30.277","long":"62.065"},"946":{"country":"AF","name":"qal'ah-ye mufti","lat":"34.379","long":"69.217"},"947":{"country":"AF","name":"qal'ah-ye mufti","lat":"32.876","long":"69.141"},"948":{"country":"AF","name":"qal'ah-ye mufti","lat":"34.522","long":"70.279"},"949":{"country":"AF","name":"qal'ah-ye muhabbat","lat":"34.569","long":"68.962"},"950":{"country":"AF","name":"qal'ah-ye muhammad 'ali","lat":"34.561","long":"66.810"},"951":{"country":"AF","name":"qal'ah-ye muhammad alwar","lat":"34.477","long":"69.286"},"952":{"country":"AF","name":"qal'ah-ye muhammad amin","lat":"34.489","long":"69.111"},"953":{"country":"AF","name":"qal'ah-ye muhammad amin","lat":"34.527","long":"70.284"},"954":{"country":"AF","name":"qal'ah-ye muhammad ayub","lat":"34.497","long":"69.181"},"955":{"country":"AF","name":"qal'ah-ye muhammad 'aziz khan","lat":"34.398","long":"69.182"},"956":{"country":"AF","name":"qal'ah-ye muhammad gul","lat":"33.073","long":"68.957"},"957":{"country":"AF","name":"qal'ah-ye muhammad hasan khan","lat":"34.172","long":"68.626"},"958":{"country":"AF","name":"qal'ah-ye muhammad hasan","lat":"34.492","long":"69.185"},"959":{"country":"AF","name":"qal'ah-ye muhammad-hayyat khan","lat":"34.485","long":"69.098"},"960":{"country":"AF","name":"qal'ah-ye muhammad hayyat","lat":"34.420","long":"69.113"},"961":{"country":"AF","name":"qal'ah-ye muhammad hosayn","lat":"34.450","long":"69.126"},"962":{"country":"AF","name":"qal'ah-ye muhammad husain","lat":"34.450","long":"69.126"},"963":{"country":"AF","name":"qal'ah-ye muhammad jan","lat":"32.398","long":"62.108"},"964":{"country":"AF","name":"qal'ah-ye muhammad jan","lat":"34.322","long":"68.725"},"965":{"country":"AF","name":"qal'ah-ye muhammad jan","lat":"33.153","long":"68.775"},"966":{"country":"AF","name":"qal'ah-ye muhammad khan","lat":"33.462","long":"68.247"},"967":{"country":"AF","name":"qal'ah-ye muhammad khan","lat":"34.437","long":"69.143"},"968":{"country":"AF","name":"qal'ah-ye muhammad khan","lat":"34.606","long":"68.175"},"969":{"country":"AF","name":"qal'ah-ye muhammad-muhsin","lat":"34.466","long":"69.289"},"970":{"country":"AF","name":"qal'ah-ye muhammad nabi","lat":"34.418","long":"69.107"},"971":{"country":"AF","name":"qal'ah-ye muhammad 'omar","lat":"34.492","long":"69.303"},"972":{"country":"AF","name":"qal'ah-ye muhammad","lat":"32.356","long":"62.105"},"973":{"country":"AF","name":"qal'ah-ye muhammad","lat":"33.317","long":"62.177"},"974":{"country":"AF","name":"qal'ah-ye muhammad","lat":"30.977","long":"61.878"},"975":{"country":"AF","name":"qal'ah-ye muhammad rafiq","lat":"34.975","long":"69.306"},"976":{"country":"AF","name":"qal'ah-ye muhammad rahim khan","lat":"32.720","long":"67.769"},"977":{"country":"AF","name":"qal'ah-ye muhammad rahim","lat":"34.519","long":"70.299"},"978":{"country":"AF","name":"qal'ah-ye muhammad raza","lat":"33.259","long":"67.800"},"979":{"country":"AF","name":"qal'ah-ye muhammad shafi'","lat":"34.498","long":"69.178"},"980":{"country":"AF","name":"qal'ah-ye muhammad shah khan","lat":"34.461","long":"69.279"},"981":{"country":"AF","name":"qal'ah-ye muhammad wais khan","lat":"34.385","long":"69.136"},"982":{"country":"AF","name":"qal'ah-ye muhammad ya'qub","lat":"34.367","long":"68.638"},"983":{"country":"AF","name":"qal'ah-ye muhsin","lat":"34.483","long":"69.038"},"984":{"country":"AF","name":"qal'ah-ye mu'in","lat":"34.452","long":"69.228"},"985":{"country":"AF","name":"qal'ah-ye mukhtar","lat":"34.329","long":"62.319"},"986":{"country":"AF","name":"qal'ah-ye mulayim","lat":"34.318","long":"68.288"},"987":{"country":"AF","name":"qal'ah-ye mulla 'abdullah","lat":"34.342","long":"62.265"},"988":{"country":"AF","name":"qal'ah-ye mulla aman","lat":"34.223","long":"69.100"},"989":{"country":"AF","name":"qal'ah-ye mulla amin","lat":"33.442","long":"62.465"},"990":{"country":"AF","name":"qal'ah-ye mulla 'ata","lat":"33.622","long":"62.969"},"991":{"country":"AF","name":"qal'ah-ye mulla ghazi","lat":"33.679","long":"68.490"},"992":{"country":"AF","name":"qal'ah-ye mulla hasan","lat":"34.049","long":"69.026"},"993":{"country":"AF","name":"qal'ah-ye mulla","lat":"34.416","long":"67.961"},"994":{"country":"AF","name":"qal'ah-ye mulla","lat":"33.119","long":"67.656"},"995":{"country":"AF","name":"qal'ah-ye mulla","lat":"34.984","long":"69.179"},"996":{"country":"AF","name":"qal'ah-ye mulla wali","lat":"32.997","long":"62.137"},"997":{"country":"AF","name":"qal'ah-ye mulla yazdan","lat":"35.658","long":"65.286"},"998":{"country":"AF","name":"qal'ah-ye muqam khan","lat":"34.400","long":"70.462"},"999":{"country":"AF","name":"qal'ah-ye murad beg","lat":"34.662","long":"69.076"},"1000":{"country":"AF","name":"qal'ah-ye murad","lat":"35.723","long":"68.284"},"1001":{"country":"AF","name":"qal'ah-ye murtaza","lat":"30.450","long":"63.328"},"1002":{"country":"AF","name":"qal'ah-ye musa bala","lat":"34.890","long":"69.217"},"1003":{"country":"AF","name":"qal'ah-ye musa pa'in","lat":"34.905","long":"69.232"},"1004":{"country":"AF","name":"qal'ah-ye musa","lat":"34.547","long":"69.176"},"1005":{"country":"AF","name":"qal'ah-ye musa","lat":"32.931","long":"69.174"},"1006":{"country":"AF","name":"qal'ah-ye musa yakah tut","lat":"34.541","long":"69.216"},"1007":{"country":"AF","name":"qal'ah-ye muslim","lat":"34.447","long":"69.115"},"1008":{"country":"AF","name":"qal'ah-ye myagan","lat":"34.441","long":"70.389"},"1009":{"country":"AF","name":"qal'ah-ye mya rasul","lat":"34.516","long":"68.998"},"1010":{"country":"AF","name":"qal'ah-ye nadir","lat":"34.473","long":"69.024"},"1011":{"country":"AF","name":"qal'ah-ye nadir shah","lat":"34.757","long":"68.365"},"1012":{"country":"AF","name":"qal'ah-ye na'ib jan 'ali","lat":"33.655","long":"68.112"},"1013":{"country":"AF","name":"qal'ah-ye na'ib salar","lat":"34.543","long":"68.998"},"1014":{"country":"AF","name":"qal'ah-ye na'im","lat":"34.399","long":"69.166"},"1015":{"country":"AF","name":"qal'ah-ye najaran","lat":"34.532","long":"70.300"},"1016":{"country":"AF","name":"qal'ah-ye najarha","lat":"34.450","long":"69.132"},"1017":{"country":"AF","name":"qal'ah-ye najar","lat":"34.465","long":"69.135"},"1018":{"country":"AF","name":"qal'ah-ye najil","lat":"34.893","long":"70.112"},"1019":{"country":"AF","name":"qal'ah-ye namak","lat":"34.312","long":"62.551"},"1020":{"country":"AF","name":"qal'ah-ye namdar","lat":"32.807","long":"67.804"},"1021":{"country":"AF","name":"qal'ah-ye naqim sahib","lat":"34.672","long":"69.023"},"1022":{"country":"AF","name":"qal'ah-ye nashar","lat":"34.916","long":"69.874"},"1023":{"country":"AF","name":"qal'ah-ye nasro","lat":"34.904","long":"69.210"},"1024":{"country":"AF","name":"qal'ah-ye nasrullah","lat":"32.692","long":"62.330"},"1025":{"country":"AF","name":"qal'ah-ye naw-e chehel tan","lat":"34.530","long":"68.988"},"1026":{"country":"AF","name":"qal'ah-ye naw-e khwajah roshna'i","lat":"33.531","long":"68.426"},"1027":{"country":"AF","name":"qal'ah-ye naw-e raqol","lat":"33.855","long":"67.759"},"1028":{"country":"AF","name":"qal'ah-ye nawerquzi","lat":"33.428","long":"67.346"},"1029":{"country":"AF","name":"qal'ah-ye naw","lat":"34.675","long":"66.896"},"1030":{"country":"AF","name":"qal'ah-ye naw","lat":"33.709","long":"68.388"},"1031":{"country":"AF","name":"qal'ah-ye nazargah","lat":"32.258","long":"63.835"},"1032":{"country":"AF","name":"qal'ah-ye nazir","lat":"34.008","long":"69.180"},"1033":{"country":"AF","name":"qal'ah-ye neshan","lat":"34.323","long":"69.116"},"1034":{"country":"AF","name":"qal'ah-ye niaz beg","lat":"35.725","long":"64.919"},"1035":{"country":"AF","name":"qal'ah-ye niaz","lat":"35.025","long":"64.009"},"1036":{"country":"AF","name":"qal'ah-ye nishah","lat":"33.151","long":"63.937"},"1037":{"country":"AF","name":"qal'ah-ye niyazi","lat":"34.469","long":"69.219"},"1038":{"country":"AF","name":"qal'ah-ye noh burjah","lat":"34.461","long":"69.152"},"1039":{"country":"AF","name":"qal'ah-ye no'man","lat":"34.491","long":"69.247"},"1040":{"country":"AF","name":"qal'ah-ye nowak","lat":"34.909","long":"62.450"},"1041":{"country":"AF","name":"qal'ah-ye now-e ahangaran","lat":"33.608","long":"68.233"},"1042":{"country":"AF","name":"qal'ah-ye now-e qal'achah","lat":"34.497","long":"69.209"},"1043":{"country":"AF","name":"qal'ah-ye now qal'ah-ye musa","lat":"34.476","long":"69.146"},"1044":{"country":"AF","name":"qal'ah-ye now","lat":"32.829","long":"65.972"},"1045":{"country":"AF","name":"qal'ah-ye now","lat":"33.803","long":"68.936"},"1046":{"country":"AF","name":"qal'ah-ye now","lat":"34.320","long":"68.127"},"1047":{"country":"AF","name":"qal'ah-ye now","lat":"32.626","long":"63.672"},"1048":{"country":"AF","name":"qal'ah-ye now","lat":"34.610","long":"66.499"},"1049":{"country":"AF","name":"qal'ah-ye now","lat":"31.536","long":"62.758"},"1050":{"country":"AF","name":"qal'ah-ye now","lat":"33.298","long":"61.960"},"1051":{"country":"AF","name":"qal'ah-ye now","lat":"34.965","long":"69.210"},"1052":{"country":"AF","name":"qal'ah-ye now","lat":"34.427","long":"70.323"},"1053":{"country":"AF","name":"qal'ah-ye now","lat":"33.404","long":"65.559"},"1054":{"country":"AF","name":"qal'ah-ye nowroz","lat":"34.805","long":"69.169"},"1055":{"country":"AF","name":"qal'ah-ye nur khan","lat":"34.452","long":"70.353"},"1056":{"country":"AF","name":"qal'ah-ye nur muhammad khan","lat":"34.538","long":"68.997"},"1057":{"country":"AF","name":"qal'ah-ye nurullah khan","lat":"33.446","long":"62.446"},"1058":{"country":"AF","name":"qal'ah-ye nurullah","lat":"33.965","long":"68.963"},"1059":{"country":"AF","name":"qal'ah-ye 'omar","lat":"33.314","long":"62.129"},"1060":{"country":"AF","name":"qal'ah-ye 'omar","lat":"34.572","long":"68.954"},"1061":{"country":"AF","name":"qal'ah-ye 'omar","lat":"34.692","long":"70.607"},"1062":{"country":"AF","name":"qal'ah-ye pacha lala","lat":"34.516","long":"70.293"},"1063":{"country":"AF","name":"qal'ah-ye pacha","lat":"34.536","long":"70.279"},"1064":{"country":"AF","name":"qal'ah-ye padshahi","lat":"34.893","long":"68.731"},"1065":{"country":"AF","name":"qal'ah-ye padshah","lat":"34.136","long":"69.238"},"1066":{"country":"AF","name":"qal'ah-ye padshah","lat":"34.318","long":"68.730"},"1067":{"country":"AF","name":"qal'ah-ye pa'in","lat":"35.702","long":"69.326"},"1068":{"country":"AF","name":"qal'ah-ye pa'in","lat":"33.268","long":"61.930"},"1069":{"country":"AF","name":"qal'ah-ye pa'in","lat":"34.957","long":"69.219"},"1070":{"country":"AF","name":"qal'ah-ye pakhchak","lat":"34.371","long":"67.028"},"1071":{"country":"AF","name":"qal'ah-ye pakhchak","lat":"34.468","long":"69.259"},"1072":{"country":"AF","name":"qal'ah-ye panjah","lat":"37.000","long":"72.580"},"1073":{"country":"AF","name":"qal'ah-ye parah","lat":"34.515","long":"66.904"},"1074":{"country":"AF","name":"qal'ah-ye parah","lat":"34.710","long":"68.326"},"1075":{"country":"AF","name":"qal'ah-ye parian","lat":"35.620","long":"70.005"},"1076":{"country":"AF","name":"qal'ah-ye pastak","lat":"34.771","long":"69.101"},"1077":{"country":"AF","name":"qal'ah-ye patahgak","lat":"34.181","long":"67.007"},"1078":{"country":"AF","name":"qal'ah-ye pati","lat":"34.471","long":"68.777"},"1079":{"country":"AF","name":"qal'ah-ye payandah muhammad","lat":"33.813","long":"68.917"},"1080":{"country":"AF","name":"qal'ah-ye payandah","lat":"34.322","long":"68.707"},"1081":{"country":"AF","name":"qal'ah-ye payendah","lat":"34.779","long":"68.476"},"1082":{"country":"AF","name":"qal'ah-ye paytow","lat":"34.462","long":"67.193"},"1083":{"country":"AF","name":"qal'ah-ye pirak","lat":"34.760","long":"69.111"},"1084":{"country":"AF","name":"qal'ah-ye pitawah","lat":"34.238","long":"66.136"},"1085":{"country":"AF","name":"qal'ah-ye pokhtah","lat":"34.258","long":"68.016"},"1086":{"country":"AF","name":"qal'ah-ye qaban","lat":"36.567","long":"69.573"},"1087":{"country":"AF","name":"qal'ah-ye qadam","lat":"33.532","long":"68.398"},"1088":{"country":"AF","name":"qal'ah-ye qafilah bashi","lat":"34.510","long":"69.095"},"1089":{"country":"AF","name":"qal'ah-ye qalbi","lat":"33.201","long":"68.089"},"1090":{"country":"AF","name":"qal'ah-ye qamar","lat":"33.314","long":"62.129"},"1091":{"country":"AF","name":"qal'ah-ye qamar ud din","lat":"33.141","long":"68.759"},"1092":{"country":"AF","name":"qal'ah-ye qa","lat":"34.465","long":"69.133"},"1093":{"country":"AF","name":"qal'ah-ye qazi ghiyas","lat":"34.427","long":"69.121"},"1094":{"country":"AF","name":"qal'ah-ye qazi","lat":"33.555","long":"68.385"},"1095":{"country":"AF","name":"qal'ah-ye qazi","lat":"34.481","long":"69.048"},"1096":{"country":"AF","name":"qal'ah-ye qazi","lat":"34.521","long":"70.294"},"1097":{"country":"AF","name":"qal'ah-ye qol-e haidar","lat":"33.146","long":"67.504"},"1098":{"country":"AF","name":"qal'ah-ye qoli","lat":"33.419","long":"67.079"},"1099":{"country":"AF","name":"qal'ah-ye qumandan","lat":"33.779","long":"68.932"},"1100":{"country":"AF","name":"qal'ah-ye qurban","lat":"33.632","long":"68.415"},"1101":{"country":"AF","name":"qal'ah-ye ragh","lat":"32.839","long":"66.024"},"1102":{"country":"AF","name":"qal'ah-ye rahim","lat":"34.451","long":"69.134"},"1103":{"country":"AF","name":"qal'ah-ye rahmdil khan","lat":"34.759","long":"69.109"},"1104":{"country":"AF","name":"qal'ah-ye rahmdil","lat":"33.306","long":"62.130"},"1105":{"country":"AF","name":"qal'ah-ye ra'is","lat":"33.824","long":"68.940"},"1106":{"country":"AF","name":"qal'ah-ye rangah","lat":"33.959","long":"67.459"},"1107":{"country":"AF","name":"qal'ah-ye rangmal","lat":"34.457","long":"69.259"},"1108":{"country":"AF","name":"qal'ah-ye rani","lat":"34.420","long":"70.287"},"1109":{"country":"AF","name":"qal'ah-ye rashid kala","lat":"31.525","long":"67.527"},"1110":{"country":"AF","name":"qal'ah-ye rashid","lat":"31.514","long":"67.521"},"1111":{"country":"AF","name":"qal'ah-ye rasul","lat":"33.045","long":"68.210"},"1112":{"country":"AF","name":"qal'ah-ye rasul","lat":"34.483","long":"69.286"},"1113":{"country":"AF","name":"qal'ah-ye raygha","lat":"34.477","long":"69.131"},"1114":{"country":"AF","name":"qal'ah-ye raygi","lat":"34.824","long":"69.164"},"1115":{"country":"AF","name":"qal'ah-ye razaq","lat":"36.688","long":"66.677"},"1116":{"country":"AF","name":"qal'ah-ye razay","lat":"33.918","long":"68.095"},"1117":{"country":"AF","name":"qal'ah-ye razi","lat":"33.171","long":"67.757"},"1118":{"country":"AF","name":"qal'ah-ye robah","lat":"34.143","long":"68.479"},"1119":{"country":"AF","name":"qal'ah-ye ruba","lat":"33.606","long":"68.271"},"1120":{"country":"AF","name":"qal'ah-ye rustam-e zal","lat":"33.364","long":"62.325"},"1121":{"country":"AF","name":"qal'ah-ye rustam","lat":"33.803","long":"68.929"},"1122":{"country":"AF","name":"qal'ah-ye saber","lat":"34.038","long":"69.020"},"1123":{"country":"AF","name":"qal'ah-ye sabir","lat":"34.491","long":"69.093"},"1124":{"country":"AF","name":"qal'ah-ye sabzak","lat":"34.043","long":"69.015"},"1125":{"country":"AF","name":"qal'ah-ye sabz","lat":"34.197","long":"66.835"},"1126":{"country":"AF","name":"qal'ah-ye sabz","lat":"34.439","long":"68.529"},"1127":{"country":"AF","name":"qal'ah-ye sadiq","lat":"34.470","long":"68.92"},"1128":{"country":"AF","name":"qal'ah-ye sadqadam","lat":"34.500","long":"66.339"},"1129":{"country":"AF","name":"qal'ah-ye sadr-e a'zam","lat":"34.653","long":"69.065"},"1130":{"country":"AF","name":"qal'ah-ye sadr-ia'zam","lat":"34.545","long":"69.233"},"1131":{"country":"AF","name":"qal'ah-ye sa'dullah","lat":"31.999","long":"67.519"},"1132":{"country":"AF","name":"qal'ah-ye safar khan","lat":"34.349","long":"61.948"},"1133":{"country":"AF","name":"qal'ah-ye safar khayl","lat":"34.950","long":"69.176"},"1134":{"country":"AF","name":"qal'ah-ye safar khel","lat":"34.950","long":"69.176"},"1135":{"country":"AF","name":"qal'ah-ye safar","lat":"34.263","long":"67.660"},"1136":{"country":"AF","name":"qal'ah-ye safar","lat":"32.635","long":"67.467"},"1137":{"country":"AF","name":"qal'ah-ye safaydak","lat":"34.299","long":"62.066"},"1138":{"country":"AF","name":"qal'ah-ye safayd","lat":"34.460","long":"67.056"},"1139":{"country":"AF","name":"qal'ah-ye safayd","lat":"34.477","long":"62.537"},"1140":{"country":"AF","name":"qal'ah-ye safayd","lat":"34.981","long":"69.126"},"1141":{"country":"AF","name":"qal'ah-ye safayd","lat":"35.037","long":"69.340"},"1142":{"country":"AF","name":"qal'ah-ye safdar","lat":"34.433","long":"69.134"},"1143":{"country":"AF","name":"qal'ah-ye sahib","lat":"34.671","long":"70.194"},"1144":{"country":"AF","name":"qal'ah-ye sahib zadah","lat":"33.006","long":"68.189"},"1145":{"country":"AF","name":"qal'ah-ye sahib zadah","lat":"34.608","long":"69.903"},"1146":{"country":"AF","name":"qal'ah-ye sahra","lat":"35.100","long":"69.220"},"1147":{"country":"AF","name":"qal'ah-ye sahra-ye mianah joy","lat":"35.095","long":"69.227"},"1148":{"country":"AF","name":"qal'ah-ye sahra-ye totum darah","lat":"35.074","long":"69.196"},"1149":{"country":"AF","name":"qal'ah-ye said 'abdullah","lat":"34.753","long":"67.788"},"1150":{"country":"AF","name":"qal'ah-ye sa'id","lat":"34.575","long":"69.112"},"1151":{"country":"AF","name":"qal'ah-ye sa'id ur rahman","lat":"34.443","long":"69.078"},"1152":{"country":"AF","name":"qal'ah-ye sakhi jan","lat":"33.146","long":"68.785"},"1153":{"country":"AF","name":"qal'ah-ye salaiman","lat":"33.825","long":"68.954"},"1154":{"country":"AF","name":"qal'ah-ye sala","lat":"34.625","long":"70.226"},"1155":{"country":"AF","name":"qal'ah-ye salar","lat":"34.813","long":"69.096"},"1156":{"country":"AF","name":"qal'ah-ye saleh muhammad khan","lat":"34.526","long":"69.192"},"1157":{"country":"AF","name":"qal'ah-ye saleh","lat":"34.470","long":"69.104"},"1158":{"country":"AF","name":"qal'ah-ye salih","lat":"34.893","long":"69.639"},"1159":{"country":"AF","name":"qal'ah-ye salim khan","lat":"34.786","long":"69.012"},"1160":{"country":"AF","name":"qal'ah-ye salim","lat":"34.338","long":"70.200"},"1161":{"country":"AF","name":"qal'ah-ye salo","lat":"33.612","long":"69.226"},"1162":{"country":"AF","name":"qal'ah-ye samad","lat":"34.421","long":"67.049"},"1163":{"country":"AF","name":"qal'ah-ye samandar","lat":"34.494","long":"69.017"},"1164":{"country":"AF","name":"qal'ah-ye saman","lat":"34.867","long":"69.220"},"1165":{"country":"AF","name":"qal'ah-ye sangak","lat":"34.652","long":"68.052"},"1166":{"country":"AF","name":"qal'ah-ye sang-e takht","lat":"34.259","long":"66.131"},"1167":{"country":"AF","name":"qal'ah-ye sangi","lat":"34.335","long":"68.896"},"1168":{"country":"AF","name":"qal'ah-ye sangi","lat":"34.118","long":"66.079"},"1169":{"country":"AF","name":"qal'ah-ye saqi","lat":"34.558","long":"69.007"},"1170":{"country":"AF","name":"qal'ah-ye saraw","lat":"35.075","long":"69.315"},"1171":{"country":"AF","name":"qal'ah-ye sardar","lat":"34.487","long":"69.215"},"1172":{"country":"AF","name":"qal'ah-ye sar-e ab","lat":"35.075","long":"69.315"},"1173":{"country":"AF","name":"qal'ah-ye sar-e dasht","lat":"34.438","long":"67.054"},"1174":{"country":"AF","name":"qal'ah-ye sar-e lar","lat":"34.399","long":"67.033"},"1175":{"country":"AF","name":"qal'ah-ye sarfaraz khan","lat":"34.484","long":"69.043"},"1176":{"country":"AF","name":"qal'ah-ye sar firaz khan","lat":"34.548","long":"70.256"},"1177":{"country":"AF","name":"qal'ah-ye sar firaz","lat":"32.983","long":"67.965"},"1178":{"country":"AF","name":"qal'ah-ye sarkari","lat":"35.075","long":"69.405"},"1179":{"country":"AF","name":"qal'ah-ye sar mu'alim","lat":"33.830","long":"68.935"},"1180":{"country":"AF","name":"qal'ah-ye sar posh","lat":"34.138","long":"68.454"},"1181":{"country":"AF","name":"qal'ah-ye sarsang","lat":"33.598","long":"69.243"},"1182":{"country":"AF","name":"qal'ah-ye sarwar","lat":"33.339","long":"61.754"},"1183":{"country":"AF","name":"qal'ah-ye sarwar","lat":"34.578","long":"68.961"},"1184":{"country":"AF","name":"qal'ah-ye sarwar","lat":"32.586","long":"67.434"},"1185":{"country":"AF","name":"qal'ah-ye sayno","lat":"34.563","long":"68.966"},"1186":{"country":"AF","name":"qal'ah-ye sayyid 'alam","lat":"33.580","long":"68.339"},"1187":{"country":"AF","name":"qal'ah-ye sayyidan","lat":"34.062","long":"69.025"},"1188":{"country":"AF","name":"qal'ah-ye sayyidan","lat":"33.589","long":"69.226"},"1189":{"country":"AF","name":"qal'ah-ye sayyidha","lat":"34.178","long":"69.078"},"1190":{"country":"AF","name":"qal'ah-ye sayyid hasan","lat":"32.958","long":"69.183"},"1191":{"country":"AF","name":"qal'ah-ye sayyid jan","lat":"34.420","long":"69.119"},"1192":{"country":"AF","name":"qal'ah-ye sayyid khan","lat":"35.052","long":"69.323"},"1193":{"country":"AF","name":"qal'ah-ye sayyid majnun","lat":"33.334","long":"67.108"},"1194":{"country":"AF","name":"qal'ah-ye sayyid","lat":"34.477","long":"68.347"},"1195":{"country":"AF","name":"qal'ah-ye sefid","lat":"34.440","long":"68.470"},"1196":{"country":"AF","name":"qal'ah-ye shadah","lat":"34.502","long":"69.126"},"1197":{"country":"AF","name":"qal'ah-ye shaghasi","lat":"34.410","long":"69.107"},"1198":{"country":"AF","name":"qal'ah-ye shahab ud din","lat":"34.521","long":"68.960"},"1199":{"country":"AF","name":"qal'ah-ye shah 'aziz","lat":"34.407","long":"69.111"},"1200":{"country":"AF","name":"qal'ah-ye shahi","lat":"34.857","long":"69.215"},"1201":{"country":"AF","name":"qal'ah-ye shahi","lat":"34.441","long":"70.322"},"1202":{"country":"AF","name":"qal'ah-ye shah muhammad","lat":"33.616","long":"68.244"},"1203":{"country":"AF","name":"qal'ah-ye shah muhammad","lat":"34.483","long":"69.135"},"1204":{"country":"AF","name":"qal'ah-ye shah nang","lat":"34.695","long":"67.034"},"1205":{"country":"AF","name":"qal'ah-ye shah","lat":"35.820","long":"70.834"},"1206":{"country":"AF","name":"qal'ah-ye shah","lat":"34.529","long":"68.648"},"1207":{"country":"AF","name":"qal'ah-ye shahr","lat":"35.547","long":"65.567"},"1208":{"country":"AF","name":"qal'ah-ye shahsawar","lat":"34.180","long":"69.088"},"1209":{"country":"AF","name":"qal'ah-ye shakarki","lat":"34.486","long":"66.341"},"1210":{"country":"AF","name":"qal'ah-ye shakh","lat":"34.146","long":"63.496"},"1211":{"country":"AF","name":"qal'ah-ye shakor","lat":"33.017","long":"68.204"},"1212":{"country":"AF","name":"qal'ah-ye shanan","lat":"34.540","long":"69.321"},"1213":{"country":"AF","name":"qal'ah-ye shan","lat":"35.643","long":"65.116"},"1214":{"country":"AF","name":"qal'ah-ye sharabian","lat":"34.534","long":"69.324"},"1215":{"country":"AF","name":"qal'ah-ye sharbat","lat":"34.513","long":"62.641"},"1216":{"country":"AF","name":"qal'ah-ye sharif","lat":"34.353","long":"62.061"},"1217":{"country":"AF","name":"qal'ah-ye sharif","lat":"34.938","long":"69.126"},"1218":{"country":"AF","name":"qal'ah-ye sharif tujar","lat":"34.466","long":"69.140"},"1219":{"country":"AF","name":"qal'ah-ye shaykhakha","lat":"34.478","long":"69.097"},"1220":{"country":"AF","name":"qal'ah-ye shaykhak","lat":"34.173","long":"69.076"},"1221":{"country":"AF","name":"qal'ah-ye shaykhha","lat":"34.467","long":"69.253"},"1222":{"country":"AF","name":"qal'ah-ye shaykh mir","lat":"34.578","long":"68.978"},"1223":{"country":"AF","name":"qal'ah-ye shayr 'alam","lat":"34.488","long":"69.250"},"1224":{"country":"AF","name":"qal'ah-ye shayray","lat":"33.911","long":"68.093"},"1225":{"country":"AF","name":"qal'ah-ye shayr khan","lat":"34.444","long":"69.131"},"1226":{"country":"AF","name":"qal'ah-ye shayr muhammad khan","lat":"33.457","long":"68.481"},"1227":{"country":"AF","name":"qal'ah-ye shayr","lat":"34.892","long":"69.112"},"1228":{"country":"AF","name":"qal'ah-ye shayr","lat":"35.042","long":"69.617"},"1229":{"country":"AF","name":"qal'ah-ye shege","lat":"34.648","long":"70.196"},"1230":{"country":"AF","name":"qal'ah-ye shirin del","lat":"34.427","long":"69.097"},"1231":{"country":"AF","name":"qal'ah-ye shora","lat":"34.537","long":"69.223"},"1232":{"country":"AF","name":"qal'ah-ye showkhan","lat":"34.665","long":"70.226"},"1233":{"country":"AF","name":"qal'ah-ye showkhar","lat":"34.665","long":"70.226"},"1234":{"country":"AF","name":"qal'ah-ye shukur","lat":"33.017","long":"68.204"},"1235":{"country":"AF","name":"qal'ah-ye shukurullah","lat":"34.494","long":"69.151"},"1236":{"country":"AF","name":"qal'ah-ye siah sang","lat":"33.957","long":"67.492"},"1237":{"country":"AF","name":"qal'ah-ye sifat khan","lat":"34.544","long":"70.282"},"1238":{"country":"AF","name":"qal'ah-ye sipahsalar","lat":"35.958","long":"68.589"},"1239":{"country":"AF","name":"qal'ah-ye sirak","lat":"30.462","long":"63.360"},"1240":{"country":"AF","name":"qal'ah-ye sokhtah","lat":"34.301","long":"66.771"},"1241":{"country":"AF","name":"qal'ah-ye sokhtah","lat":"34.525","long":"70.271"},"1242":{"country":"AF","name":"qal'ah-ye spi sang","lat":"34.396","long":"67.573"},"1243":{"country":"AF","name":"qal'ah-ye sufi","lat":"34.732","long":"69.078"},"1244":{"country":"AF","name":"qal'ah-ye sufi","lat":"34.672","long":"70.192"},"1245":{"country":"AF","name":"qal'ah-ye sulaiman","lat":"33.660","long":"68.110"},"1246":{"country":"AF","name":"qal'ah-ye sultan jan","lat":"34.494","long":"69.085"},"1247":{"country":"AF","name":"qal'ah-ye surkhak","lat":"32.681","long":"62.461"},"1248":{"country":"AF","name":"qal'ah-ye surkh-e bala","lat":"34.575","long":"68.691"},"1249":{"country":"AF","name":"qal'ah-ye surkh-e pa'in","lat":"34.535","long":"68.659"},"1250":{"country":"AF","name":"qal'ah-ye surkh","lat":"33.564","long":"68.36"},"1251":{"country":"AF","name":"qal'ah-ye surkh","lat":"32.404","long":"63.552"},"1252":{"country":"AF","name":"qal'ah-ye surkh","lat":"34.437","long":"69.124"},"1253":{"country":"AF","name":"qal'ah-ye surkh","lat":"34.030","long":"68.363"},"1254":{"country":"AF","name":"qal'ah-ye surkh","lat":"32.658","long":"65.850"},"1255":{"country":"AF","name":"qal'ah-ye surkh","lat":"35.101","long":"69.224"},"1256":{"country":"AF","name":"qal'ah-ye surkh","lat":"34.235","long":"66.144"},"1257":{"country":"AF","name":"qal'ah-ye tagab ishlan","lat":"34.105","long":"63.603"},