{"0":{"country":"AD","name":"xixerella","lat":"42.55","long":"1.4833"},"1":{"country":"AL","name":"xafereve","lat":"41.970","long":"20.522"},"2":{"country":"AL","name":"xanollar","lat":"40.461","long":"20.18"},"3":{"country":"AL","name":"xara","lat":"39.728","long":"20.054"},"4":{"country":"AL","name":"xare","lat":"39.728","long":"20.054"},"5":{"country":"AL","name":"xarina","lat":"40.479","long":"19.548"},"6":{"country":"AL","name":"xarine","lat":"40.479","long":"19.548"},"7":{"country":"AL","name":"xarja","lat":"39.728","long":"20.054"},"8":{"country":"AL","name":"xarra","lat":"39.728","long":"20.054"},"9":{"country":"AL","name":"xarre","lat":"39.728","long":"20.054"},"10":{"country":"AL","name":"xathi","lat":"42.134","long":"20.155"},"11":{"country":"AL","name":"xath","lat":"42.134","long":"20.155"},"12":{"country":"AL","name":"xenga","lat":"40.976","long":"19.535"},"13":{"country":"AL","name":"xenge","lat":"40.976","long":"19.535"},"14":{"country":"AL","name":"xengu","lat":"40.976","long":"19.535"},"15":{"country":"AL","name":"xeng","lat":"40.976","long":"19.535"},"16":{"country":"AL","name":"xerje-denasi","lat":"40.616","long":"20.511"},"17":{"country":"AL","name":"xerje-denas","lat":"40.616","long":"20.511"},"18":{"country":"AL","name":"xerje","lat":"40.616","long":"20.511"},"19":{"country":"AL","name":"xhafaj","lat":"40.416","long":"20.000"},"20":{"country":"AL","name":"xhafan","lat":"40.416","long":"20.000"},"21":{"country":"AL","name":"xhaferaj","lat":"41.970","long":"20.522"},"22":{"country":"AL","name":"xhafereve","lat":"41.970","long":"20.522"},"23":{"country":"AL","name":"xhaferraj","lat":"42.028","long":"19.449"},"24":{"country":"AL","name":"xhaferrapaj","lat":"40.577","long":"19.816"},"25":{"country":"AL","name":"xhafe zotaj","lat":"41.344","long":"19.547"},"26":{"country":"AL","name":"xhaftozaj","lat":"41.344","long":"19.547"},"27":{"country":"AL","name":"xhafzotaj","lat":"41.344","long":"19.547"},"28":{"country":"AL","name":"xhahi","lat":"42.107","long":"20.506"},"29":{"country":"AL","name":"xhah","lat":"42.107","long":"20.506"},"30":{"country":"AL","name":"xhame","lat":"41.037","long":"19.662"},"31":{"country":"AL","name":"xhamia e siperme","lat":"41.133","long":"20.258"},"32":{"country":"AL","name":"xhami","lat":"40.816","long":"20.074"},"33":{"country":"AL","name":"xhamsi","lat":"40.899","long":"20.212"},"34":{"country":"AL","name":"xhams","lat":"40.899","long":"20.212"},"35":{"country":"AL","name":"xhanaj","lat":"40.370","long":"20.231"},"36":{"country":"AL","name":"xhanakaj","lat":"40.978","long":"19.778"},"37":{"country":"AL","name":"xhanau","lat":"40.370","long":"20.231"},"38":{"country":"AL","name":"xhani","lat":"42.253","long":"19.653"},"39":{"country":"AL","name":"xhan","lat":"42.253","long":"19.653"},"40":{"country":"AL","name":"xhapaj","lat":"40.921","long":"19.879"},"41":{"country":"AL","name":"xhavur","lat":"40.894","long":"20.015"},"42":{"country":"AL","name":"xhavzotaj","lat":"41.344","long":"19.547"},"43":{"country":"AL","name":"xhaxhai","lat":"40.454","long":"19.91"},"44":{"country":"AL","name":"xhaxhaj","lat":"40.454","long":"19.91"},"45":{"country":"AL","name":"xhearik","lat":"41.79","long":"20.328"},"46":{"country":"AL","name":"xhedide","lat":"41.263","long":"19.637"},"47":{"country":"AL","name":"xhedik","lat":"41.79","long":"20.328"},"48":{"country":"AL","name":"xhemalbaz","lat":"41.469","long":"19.791"},"49":{"country":"AL","name":"xhenaj","lat":"40.370","long":"20.231"},"50":{"country":"AL","name":"xhendite","lat":"41.263","long":"19.637"},"51":{"country":"AL","name":"xhenova","lat":"40.505","long":"20.0"},"52":{"country":"AL","name":"xhenove","lat":"40.505","long":"20.0"},"53":{"country":"AL","name":"xhepa","lat":"40.677","long":"20.286"},"54":{"country":"AL","name":"xhepa","lat":"40.683","long":"19.72"},"55":{"country":"AL","name":"xhepe","lat":"40.677","long":"20.286"},"56":{"country":"AL","name":"xhepe","lat":"40.683","long":"19.72"},"57":{"country":"AL","name":"xheppas","lat":"40.120","long":"20.507"},"58":{"country":"AL","name":"xheras","lat":"40.560","long":"20.883"},"59":{"country":"AL","name":"xherezotaj","lat":"41.344","long":"19.547"},"60":{"country":"AL","name":"xheria","lat":"41.033","long":"19.892"},"61":{"country":"AL","name":"xherie","lat":"41.033","long":"19.892"},"62":{"country":"AL","name":"xherija","lat":"41.033","long":"19.892"},"63":{"country":"AL","name":"xherije","lat":"41.033","long":"19.892"},"64":{"country":"AL","name":"xherkja","lat":"42.318","long":"20.226"},"65":{"country":"AL","name":"xhermeas","lat":"40.669","long":"19.988"},"66":{"country":"AL","name":"xhibrake","lat":"41.008","long":"19.783"},"67":{"country":"AL","name":"xhibrraka","lat":"41.166","long":"20.199"},"68":{"country":"AL","name":"xhitomi i math","lat":"40.625","long":"19.983"},"69":{"country":"AL","name":"xhokaj","lat":"40.971","long":"19.789"},"70":{"country":"AL","name":"xhora","lat":"40.113","long":"19.863"},"71":{"country":"AL","name":"xhoxhaj","lat":"40.69","long":"19.845"},"72":{"country":"AL","name":"xhuhanoj","lat":"40.339","long":"20.153"},"73":{"country":"AL","name":"xhulaj","lat":"40.450","long":"19.839"},"74":{"country":"AL","name":"xhurasi","lat":"41.604","long":"20.363"},"75":{"country":"AL","name":"xhuxhaj","lat":"42.305","long":"20.321"},"76":{"country":"AL","name":"xhuxha","lat":"41.962","long":"20.210"},"77":{"country":"AL","name":"xhuxhe","lat":"41.962","long":"20.210"},"78":{"country":"AL","name":"xhuzha","lat":"41.962","long":"20.210"},"79":{"country":"AL","name":"xhyerina","lat":"40.479","long":"19.548"},"80":{"country":"AL","name":"xhyerine","lat":"40.479","long":"19.548"},"81":{"country":"AL","name":"xhyherina","lat":"40.479","long":"19.548"},"82":{"country":"AL","name":"xhyherine","lat":"40.479","long":"19.548"},"83":{"country":"AL","name":"xhyra","lat":"41.286","long":"20.028"},"84":{"country":"AL","name":"xhyre","lat":"41.286","long":"20.028"},"85":{"country":"AL","name":"xiber-hane","lat":"41.473","long":"20.021"},"86":{"country":"AL","name":"xiber-hania","lat":"41.473","long":"20.021"},"87":{"country":"AL","name":"xiber-muriza","lat":"41.454","long":"20.025"},"88":{"country":"AL","name":"xiber-murize","lat":"41.454","long":"20.025"},"89":{"country":"AL","name":"xiber-murriza","lat":"41.454","long":"20.025"},"90":{"country":"AL","name":"xiber-murrize","lat":"41.454","long":"20.025"},"91":{"country":"AL","name":"xiber-murrizia","lat":"41.454","long":"20.025"},"92":{"country":"AL","name":"xiber-murriz","lat":"41.454","long":"20.025"},"93":{"country":"AL","name":"xiber-murr","lat":"41.454","long":"20.025"},"94":{"country":"AL","name":"xiberraka","lat":"41.166","long":"20.199"},"95":{"country":"AL","name":"xiberrake","lat":"41.024","long":"19.921"},"96":{"country":"AL","name":"xiberr-murrize","lat":"41.454","long":"20.025"},"97":{"country":"AL","name":"xiber","lat":"41.454","long":"20.025"},"98":{"country":"AL","name":"xibraka","lat":"41.008","long":"19.783"},"99":{"country":"AL","name":"xibrake","lat":"41.008","long":"19.783"},"100":{"country":"AL","name":"xibreshi","lat":"40.987","long":"20.208"},"101":{"country":"AL","name":"xibresh","lat":"40.987","long":"20.208"},"102":{"country":"AL","name":"xibri","lat":"41.454","long":"20.025"},"103":{"country":"AL","name":"xibrraka","lat":"41.008","long":"19.783"},"104":{"country":"AL","name":"xibrrake","lat":"41.008","long":"19.783"},"105":{"country":"AL","name":"xibrreshi","lat":"40.987","long":"20.208"},"106":{"country":"AL","name":"xuhulare","lat":"41.222","long":"19.604"},"107":{"country":"AL","name":"xukulare","lat":"41.222","long":"19.604"},"108":{"country":"AO","name":"xabimbe","lat":"-8.783","long":"19.366"},"109":{"country":"AO","name":"xabuanda","lat":"-8.468","long":"20.169"},"110":{"country":"AO","name":"xa bungo","lat":"-8.663","long":"20.700"},"111":{"country":"AO","name":"xa-cabolo","lat":"-10.31","long":"18.566"},"112":{"country":"AO","name":"xacafunvo","lat":"-10.04","long":"18.370"},"113":{"country":"AO","name":"xacambolo","lat":"-10.31","long":"18.566"},"114":{"country":"AO","name":"xa-camuanga","lat":"-7.1","long":"19.683"},"115":{"country":"AO","name":"xa-cariango","lat":"-8.916","long":"18.433"},"116":{"country":"AO","name":"xa cassai","lat":"-8.931","long":"20.291"},"117":{"country":"AO","name":"xa-cassau","lat":"-8.931","long":"20.291"},"118":{"country":"AO","name":"xa-cauda","lat":"-8.3","long":"21.683"},"119":{"country":"AO","name":"xa-checa","lat":"-8.266","long":"21.6"},"120":{"country":"AO","name":"xachezela","lat":"-10.66","long":"19.066"},"121":{"country":"AO","name":"xacufa","lat":"-10.23","long":"19.436"},"122":{"country":"AO","name":"xadissaca","lat":"-7.483","long":"20.733"},"123":{"country":"AO","name":"xa-enga","lat":"-8.566","long":"21.766"},"124":{"country":"AO","name":"xafama","lat":"-10.11","long":"18.313"},"125":{"country":"AO","name":"xa-guinguri","lat":"-8.816","long":"19"},"126":{"country":"AO","name":"xaiaculo","lat":"-8.216","long":"20.4"},"127":{"country":"AO","name":"xa-ibange","lat":"-8.05","long":"20.8"},"128":{"country":"AO","name":"xa-ilenga","lat":"-7.583","long":"20.433"},"129":{"country":"AO","name":"xa ilunga","lat":"-7.583","long":"20.433"},"130":{"country":"AO","name":"xaito","lat":"-8.05","long":"20.033"},"131":{"country":"AO","name":"xali","lat":"-11.01","long":"14.298"},"132":{"country":"AO","name":"xalonga","lat":"-8.302","long":"21.441"},"133":{"country":"AO","name":"xamamariata nova","lat":"-8.216","long":"18.25"},"134":{"country":"AO","name":"xamaquinga","lat":"-8.747","long":"18.386"},"135":{"country":"AO","name":"xamassanza","lat":"-8.814","long":"18.290"},"136":{"country":"AO","name":"xa-mateba","lat":"-9.523","long":"17.808"},"137":{"country":"AO","name":"xamavena","lat":"-17.8","long":"20.4"},"138":{"country":"AO","name":"xamazaca","lat":"-8.116","long":"18.783"},"139":{"country":"AO","name":"xambundo","lat":"-10.11","long":"19.367"},"140":{"country":"AO","name":"xamenana","lat":"-8.55","long":"20.55"},"141":{"country":"AO","name":"xamessanga","lat":"-10.3","long":"18.15"},"142":{"country":"AO","name":"xamindele","lat":"-6.666","long":"13.816"},"143":{"country":"AO","name":"xamongue","lat":"-7.85","long":"19.966"},"144":{"country":"AO","name":"xamucumbi","lat":"-10.28","long":"18.210"},"145":{"country":"AO","name":"xa muteba","lat":"-9.523","long":"17.808"},"146":{"country":"AO","name":"xana","lat":"-8.066","long":"19.4"},"147":{"country":"AO","name":"xandel","lat":"-9.386","long":"17.194"},"148":{"country":"AO","name":"xandembo","lat":"-10.25","long":"19.041"},"149":{"country":"AO","name":"xandua","lat":"-8.666","long":"20.433"},"150":{"country":"AO","name":"xangamba","lat":"-8.55","long":"19.3"},"151":{"country":"AO","name":"xanga","lat":"-9.016","long":"15.95"},"152":{"country":"AO","name":"xangongo","lat":"-16.75","long":"14.983"},"153":{"country":"AO","name":"xangulo","lat":"-10.3","long":"18.233"},"154":{"country":"AO","name":"xa plumba","lat":"-10.63","long":"19.1"},"155":{"country":"AO","name":"xapumina","lat":"-15.8","long":"13.8"},"156":{"country":"AO","name":"xaquengue","lat":"-8.517","long":"18.276"},"157":{"country":"AO","name":"xaquessa","lat":"-16.61","long":"19.033"},"158":{"country":"AO","name":"xariatula","lat":"-10.76","long":"14.997"},"159":{"country":"AO","name":"xa-sengue","lat":"-10.45","long":"18.533"},"160":{"country":"AO","name":"xassengue","lat":"-10.45","long":"18.533"},"161":{"country":"AO","name":"xa-tambue","lat":"-7.429","long":"20.491"},"162":{"country":"AO","name":"xatengo","lat":"-7.65","long":"19.95"},"163":{"country":"AO","name":"xaundo","lat":"-7.65","long":"19.416"},"164":{"country":"AO","name":"xa xicunga","lat":"-10.4","long":"18.716"},"165":{"country":"AO","name":"xequena","lat":"-16.61","long":"19.033"},"166":{"country":"AO","name":"xexe","lat":"-8.690","long":"14.774"},"167":{"country":"AO","name":"xiala","lat":"-11.08","long":"14.251"},"168":{"country":"AO","name":"xicandama","lat":"-10.36","long":"18.397"},"169":{"country":"AO","name":"xicuma","lat":"-10.85","long":"21.166"},"170":{"country":"AO","name":"xicunhe","lat":"-10.28","long":"18.1"},"171":{"country":"AO","name":"xifuapo","lat":"-8.655","long":"18.980"},"172":{"country":"AO","name":"xila","lat":"-8.143","long":"16.482"},"173":{"country":"AO","name":"xilimbimbi","lat":"-8.883","long":"15.954"},"174":{"country":"AO","name":"xilombo","lat":"-11.40","long":"14.612"},"175":{"country":"AO","name":"xilumbo","lat":"-11.23","long":"14.321"},"176":{"country":"AO","name":"ximba ia quibaxi","lat":"-8.590","long":"14.509"},"177":{"country":"AO","name":"ximbango","lat":"-12.6","long":"15.533"},"178":{"country":"AO","name":"ximba","lat":"-9.4","long":"18.3"},"179":{"country":"AO","name":"ximbengue","lat":"-10.50","long":"17.304"},"180":{"country":"AO","name":"ximbir","lat":"-13.66","long":"18.7"},"181":{"country":"AO","name":"ximbo","lat":"-8.55","long":"14.55"},"182":{"country":"AO","name":"ximbungo","lat":"-11.3","long":"15.45"},"183":{"country":"AO","name":"ximuacongo","lat":"-6.716","long":"14.8"},"184":{"country":"AO","name":"xinamuti","lat":"-7.447","long":"15.444"},"185":{"country":"AO","name":"xinco","lat":"-14.55","long":"12.8"},"186":{"country":"AO","name":"xindinguire","lat":"-12.73","long":"15.883"},"187":{"country":"AO","name":"xindo","lat":"-5.966","long":"14.916"},"188":{"country":"AO","name":"xinganeca","lat":"-9.174","long":"15.901"},"189":{"country":"AO","name":"xinganhima","lat":"-8.189","long":"18.544"},"190":{"country":"AO","name":"xinganzambi","lat":"-7.266","long":"14.35"},"191":{"country":"AO","name":"xinga","lat":"-7.1","long":"14.283"},"192":{"country":"AO","name":"xinges","lat":"-9.776","long":"19.136"},"193":{"country":"AO","name":"xinge","lat":"-9.776","long":"19.136"},"194":{"country":"AO","name":"xingi","lat":"-9.776","long":"19.136"},"195":{"country":"AO","name":"xingombo","lat":"-10.56","long":"18.187"},"196":{"country":"AO","name":"xinguar","lat":"-12.55","long":"16.333"},"197":{"country":"AO","name":"xingue","lat":"-6.187","long":"16.103"},"198":{"country":"AO","name":"xingui","lat":"-6.187","long":"16.103"},"199":{"country":"AO","name":"xinhombo","lat":"-15.53","long":"13.75"},"200":{"country":"AO","name":"xinjanga","lat":"-13.48","long":"19.15"},"201":{"country":"AO","name":"xinjenquele","lat":"-11.25","long":"14.345"},"202":{"country":"AO","name":"xionga","lat":"-12.56","long":"15.631"},"203":{"country":"AO","name":"xipato","lat":"-10.69","long":"22.172"},"204":{"country":"AO","name":"xipau","lat":"-7.683","long":"15.316"},"205":{"country":"AO","name":"xipeio","lat":"-14.45","long":"16.7"},"206":{"country":"AO","name":"xiperavava","lat":"-12.56","long":"15.566"},"207":{"country":"AO","name":"xipuco","lat":"-11.25","long":"14.324"},"208":{"country":"AO","name":"xipuica","lat":"-10.73","long":"22.166"},"209":{"country":"AO","name":"xipuli","lat":"-12.73","long":"15.75"},"210":{"country":"AO","name":"xiputa","lat":"-10.69","long":"22.172"},"211":{"country":"AO","name":"xiquita","lat":"-8.575","long":"16.393"},"212":{"country":"AO","name":"xiquita","lat":"-7.964","long":"15.945"},"213":{"country":"AO","name":"xirica","lat":"-8.537","long":"16.368"},"214":{"country":"AO","name":"xirimbimbe","lat":"-8.883","long":"15.954"},"215":{"country":"AO","name":"xirimbimbi","lat":"-8.883","long":"15.954"},"216":{"country":"AO","name":"xissamata","lat":"-11.51","long":"20.233"},"217":{"country":"AO","name":"xissa","lat":"-8.383","long":"16.243"},"218":{"country":"AO","name":"xissende","lat":"-14.43","long":"18.866"},"219":{"country":"AO","name":"xita","lat":"-8.483","long":"15.756"},"220":{"country":"AO","name":"xiteque","lat":"-11.31","long":"14.4"},"221":{"country":"AO","name":"xitopo","lat":"-7.346","long":"20.182"},"222":{"country":"AO","name":"xitucicio","lat":"-11.91","long":"15.45"},"223":{"country":"AO","name":"xitue","lat":"-12.68","long":"15.548"},"224":{"country":"AO","name":"xivala","lat":"-14.86","long":"14.316"},"225":{"country":"AO","name":"xivunda","lat":"-11.85","long":"20.65"},"226":{"country":"AO","name":"xivundo","lat":"-9.808","long":"21.899"},"227":{"country":"AO","name":"xixe","lat":"-9.186","long":"14.321"},"228":{"country":"AO","name":"xixila","lat":"-8.711","long":"16.055"},"229":{"country":"AT","name":"xaveriberg","lat":"46.711","long":"12.745"},"230":{"country":"AU","name":"xantippe telegraph office","lat":"-30.03","long":"117.03"},"231":{"country":"AU","name":"xantippe","lat":"-30.03","long":"117.03"},"232":{"country":"AZ","name":"xacandarbatli","lat":"40.033","long":"46.833"},"233":{"country":"AZ","name":"xacinabad","lat":"39.802","long":"47.492"},"234":{"country":"AZ","name":"xacinyali","lat":"39.805","long":"46.426"},"235":{"country":"AZ","name":"xacmac","lat":"39.753","long":"46.874"},"236":{"country":"AZ","name":"xacmazqislaq","lat":"40.980","long":"47.604"},"237":{"country":"AZ","name":"xacmaz","lat":"41.042","long":"47.604"},"238":{"country":"AZ","name":"xacmaz","lat":"41.463","long":"48.806"},"239":{"country":"AZ","name":"xalac","lat":"39.365","long":"46.528"},"240":{"country":"AZ","name":"xalac","lat":"39.75","long":"49.041"},"241":{"country":"AZ","name":"xalac","lat":"40.347","long":"47.681"},"242":{"country":"AZ","name":"xalac","lat":"40.919","long":"49.045"},"243":{"country":"AZ","name":"xalafli","lat":"39.171","long":"47.006"},"244":{"country":"AZ","name":"xalafsa","lat":"39.553","long":"47.113"},"245":{"country":"AZ","name":"xalatalabina","lat":"41.538","long":"46.459"},"246":{"country":"AZ","name":"xalatala","lat":"41.723","long":"46.284"},"247":{"country":"AZ","name":"xaldan","lat":"40.715","long":"47.229"},"248":{"country":"AZ","name":"xalfakuca","lat":"38.733","long":"48.433"},"249":{"country":"AZ","name":"xalfalar","lat":"41.171","long":"48.895"},"250":{"country":"AZ","name":"xalfalikand","lat":"38.652","long":"48.417"},"251":{"country":"AZ","name":"xalfali","lat":"39.955","long":"48.678"},"252":{"country":"AZ","name":"xalfali","lat":"39.766","long":"46.683"},"253":{"country":"AZ","name":"xalidli","lat":"40.583","long":"47.686"},"254":{"country":"AZ","name":"xalilabad","lat":"39.152","long":"48.476"},"255":{"country":"AZ","name":"xalilli","lat":"40.616","long":"48.198"},"256":{"country":"AZ","name":"xalilli","lat":"41.300","long":"48.983"},"257":{"country":"AZ","name":"xaliloba","lat":"39.376","long":"46.488"},"258":{"country":"AZ","name":"xallanli","lat":"39.971","long":"46.176"},"259":{"country":"AZ","name":"xalsa","lat":"40.080","long":"48.223"},"260":{"country":"AZ","name":"xaltan","lat":"40.975","long":"48.685"},"261":{"country":"AZ","name":"xalxalqislaq","lat":"41.046","long":"47.509"},"262":{"country":"AZ","name":"xalxal","lat":"39.333","long":"45.458"},"263":{"country":"AZ","name":"xalxal","lat":"41.075","long":"47.539"},"264":{"country":"AZ","name":"xanabad","lat":"39.970","long":"46.818"},"265":{"country":"AZ","name":"xanabad","lat":"40.790","long":"47.177"},"266":{"country":"AZ","name":"xanadzax","lat":"39.848","long":"46.740"},"267":{"country":"AZ","name":"xanagahli","lat":"40.274","long":"47.177"},"268":{"country":"AZ","name":"xanagah","lat":"39.204","long":"48.274"},"269":{"country":"AZ","name":"xanagah","lat":"40.849","long":"48.145"},"270":{"country":"AZ","name":"xanagah","lat":"39.192","long":"45.707"},"271":{"country":"AZ","name":"xanagah","lat":"40.746","long":"49.240"},"272":{"country":"AZ","name":"xanagah","lat":"38.836","long":"48.286"},"273":{"country":"AZ","name":"xanalalar","lat":"39.554","long":"46.641"},"274":{"country":"AZ","name":"xanali","lat":"39.750","long":"46.589"},"275":{"country":"AZ","name":"xanalyan","lat":"38.941","long":"48.637"},"276":{"country":"AZ","name":"xanarab","lat":"40.229","long":"47.179"},"277":{"country":"AZ","name":"xandak","lat":"39.416","long":"46.650"},"278":{"country":"AZ","name":"xandak","lat":"40.976","long":"48.996"},"279":{"country":"AZ","name":"xankandi","lat":"40.757","long":"48.415"},"280":{"country":"AZ","name":"xankandi","lat":"39.817","long":"46.755"},"281":{"country":"AZ","name":"xanlarkand","lat":"39.883","long":"48.611"},"282":{"country":"AZ","name":"xanlar","lat":"40.306","long":"49.820"},"283":{"country":"AZ","name":"xanlar","lat":"40.586","long":"46.315"},"284":{"country":"AZ","name":"xanliqlar","lat":"39.502","long":"45.026"},"285":{"country":"AZ","name":"xanliqoba","lat":"41.379","long":"48.912"},"286":{"country":"AZ","name":"xanliqpaya","lat":"39.757","long":"46.611"},"287":{"country":"AZ","name":"xanliq","lat":"39.272","long":"46.721"},"288":{"country":"AZ","name":"xanmammadli","lat":"39.395","long":"48.790"},"289":{"country":"AZ","name":"xanoba","lat":"39.757","long":"47.031"},"290":{"country":"AZ","name":"xan qarvand","lat":"40.495","long":"46.912"},"291":{"country":"AZ","name":"xantsk","lat":"39.936","long":"46.680"},"292":{"country":"AZ","name":"xanxanimli","lat":"40.282","long":"47.160"},"293":{"country":"AZ","name":"xanyeri","lat":"39.936","long":"46.680"},"294":{"country":"AZ","name":"xanyurdu","lat":"39.848","long":"46.740"},"295":{"country":"AZ","name":"xarxan","lat":"39.723","long":"46.944"},"296":{"country":"AZ","name":"xarxaput","lat":"40.432","long":"46.612"},"297":{"country":"AZ","name":"xarxar","lat":"40.705","long":"45.830"},"298":{"country":"AZ","name":"xasadarli","lat":"40.701","long":"46.688"},"299":{"country":"AZ","name":"xasidara","lat":"40.702","long":"48.412"},"300":{"country":"AZ","name":"xasili","lat":"40.249","long":"47.253"},"301":{"country":"AZ","name":"xasi","lat":"41.028","long":"48.665"},"302":{"country":"AZ","name":"xaspoladoba","lat":"41.483","long":"48.825"},"303":{"country":"AZ","name":"xatai","lat":"41.127","long":"45.477"},"304":{"country":"AZ","name":"xatinbulaq","lat":"39.514","long":"47.103"},"305":{"country":"AZ","name":"xatinli","lat":"41.050","long":"45.638"},"306":{"country":"AZ","name":"xatman","lat":"40.724","long":"48.493"},"307":{"country":"AZ","name":"xazar","lat":"39.254","long":"48.918"},"308":{"country":"AZ","name":"xersonovka","lat":"39.893","long":"48.772"},"309":{"country":"AZ","name":"xeyrimli","lat":"41.048","long":"45.097"},"310":{"country":"AZ","name":"xicaso","lat":"38.554","long":"48.745"},"311":{"country":"AZ","name":"xidirli","lat":"40.009","long":"46.890"},"312":{"country":"AZ","name":"xidirli","lat":"39.843","long":"49.320"},"313":{"country":"AZ","name":"xidirli","lat":"39.421","long":"46.537"},"314":{"country":"AZ","name":"xilli","lat":"39.430","long":"49.101"},"315":{"country":"AZ","name":"xilmilli","lat":"40.693","long":"48.865"},"316":{"country":"AZ","name":"xil","lat":"38.972","long":"48.727"},"317":{"country":"AZ","name":"xilxina","lat":"41.176","long":"45.414"},"318":{"country":"AZ","name":"ximran","lat":"40.866","long":"48.422"},"319":{"country":"AZ","name":"xinaliq","lat":"41.179","long":"48.127"},"320":{"country":"AZ","name":"xinali","lat":"40.728","long":"46.720"},"321":{"country":"AZ","name":"xinaxli","lat":"40.355","long":"47.462"},"322":{"country":"AZ","name":"xincab","lat":"39.398","long":"45.276"},"323":{"country":"AZ","name":"xindiristan","lat":"40.125","long":"47.103"},"324":{"country":"AZ","name":"xindiristar","lat":"40.125","long":"47.103"},"325":{"country":"AZ","name":"xinisli","lat":"40.324","long":"48.284"},"326":{"country":"AZ","name":"xinnakiran","lat":"40.8","long":"45.633"},"327":{"country":"AZ","name":"xirdalan","lat":"40.448","long":"49.755"},"328":{"country":"AZ","name":"xirdaoymaq","lat":"41.368","long":"48.887"},"329":{"country":"AZ","name":"xirmanciq","lat":"39.544","long":"47.091"},"330":{"country":"AZ","name":"xirmandali","lat":"39.161","long":"48.717"},"331":{"country":"AZ","name":"xirmanlar","lat":"39.71","long":"46.558"},"332":{"country":"AZ","name":"xirt","lat":"41.127","long":"48.584"},"333":{"country":"AZ","name":"xirxatala","lat":"40.963","long":"47.760"},"334":{"country":"AZ","name":"xizi","lat":"40.905","long":"49.081"},"335":{"country":"AZ","name":"xndzristan","lat":"39.970","long":"46.686"},"336":{"country":"AZ","name":"xocahan","lat":"39.192","long":"46.718"},"337":{"country":"AZ","name":"xocali","lat":"39.912","long":"46.790"},"338":{"country":"AZ","name":"xocasan","lat":"40.413","long":"49.772"},"339":{"country":"AZ","name":"xocavand","lat":"40.031","long":"47.409"},"340":{"country":"AZ","name":"xocavand","lat":"39.795","long":"47.109"},"341":{"country":"AZ","name":"xocik","lat":"39.352","long":"46.682"},"342":{"country":"AZ","name":"xokesis","lat":"39.170","long":"45.696"},"343":{"country":"AZ","name":"xok","lat":"39.376","long":"45.171"},"344":{"country":"AZ","name":"xolazay alxasli","lat":"40.016","long":"46.033"},"345":{"country":"AZ","name":"xolmili","lat":"38.676","long":"48.865"},"346":{"country":"AZ","name":"xol qarabucaq","lat":"39.308","long":"48.817"},"347":{"country":"AZ","name":"xol qaraqasli","lat":"39.305","long":"48.832"},"348":{"country":"AZ","name":"xoruzlu","lat":"40.443","long":"47.018"},"349":{"country":"AZ","name":"xosbulaq","lat":"40.466","long":"46.009"},"350":{"country":"AZ","name":"xoscobanli","lat":"39.855","long":"48.123"},"351":{"country":"AZ","name":"xosrov","lat":"40.630","long":"47.583"},"352":{"country":"AZ","name":"xoylu","lat":"40.645","long":"46.536"},"353":{"country":"AZ","name":"xoylu","lat":"40.652","long":"48.513"},"354":{"country":"AZ","name":"xozavi","lat":"38.695","long":"48.448"},"355":{"country":"AZ","name":"xramort","lat":"39.991","long":"46.836"},"356":{"country":"AZ","name":"xucbala","lat":"41.415","long":"48.465"},"357":{"country":"AZ","name":"xudat","lat":"41.630","long":"48.681"},"358":{"country":"AZ","name":"xuluqoba","lat":"41.672","long":"48.562"},"359":{"country":"AZ","name":"xuluq","lat":"41.467","long":"48.152"},"360":{"country":"AZ","name":"xumarli","lat":"39.144","long":"46.775"},"361":{"country":"AZ","name":"xumarta","lat":"39.611","long":"46.675"},"362":{"country":"AZ","name":"xural","lat":"41.434","long":"48.349"},"363":{"country":"AZ","name":"xuray","lat":"41.686","long":"48.737"},"364":{"country":"AZ","name":"xursud","lat":"39.629","long":"48.914"},"365":{"country":"AZ","name":"xurs","lat":"39.207","long":"45.900"},"366":{"country":"BE","name":"xaimont","lat":"49.8","long":"5.55"},"367":{"country":"BE","name":"xhavee","lat":"50.666","long":"5.65"},"368":{"country":"BE","name":"xhawirs","lat":"50.616","long":"5.7666"},"369":{"country":"BE","name":"xhendelesse","lat":"50.6","long":"5.7666"},"370":{"country":"BE","name":"xhendremael","lat":"50.7","long":"5.4833"},"371":{"country":"BE","name":"xheneumont","lat":"50.633","long":"5.8166"},"372":{"country":"BE","name":"xhenorie","lat":"50.633","long":"5.8833"},"373":{"country":"BE","name":"xhierfomont","lat":"50.4","long":"5.7666"},"374":{"country":"BE","name":"xhignesse","lat":"50.433","long":"5.5333"},"375":{"country":"BE","name":"xhoffraix","lat":"50.45","long":"6.0666"},"376":{"country":"BE","name":"xhoris","lat":"50.45","long":"5.6"},"377":{"country":"BE","name":"xhos","lat":"50.483","long":"5.4666"},"378":{"country":"BE","name":"xhout-si-plout","lat":"50.3","long":"5.7166"},"379":{"country":"BE","name":"xhout-si-plou","lat":"50.3","long":"5.7166"},"380":{"country":"BE","name":"xhoutsiploux","lat":"50.3","long":"5.7166"},"381":{"country":"BE","name":"xhovemont","lat":"50.65","long":"5.5666"},"382":{"country":"BE","name":"xhurdebise","lat":"50.416","long":"6.0166"},"383":{"country":"BG","name":"xanne sandanski","lat":"41.566","long":"23.283"},"384":{"country":"BR","name":"xambioa","lat":"-6.432","long":"-48.38"},"385":{"country":"BR","name":"xambioazinho","lat":"-6.432","long":"-48.38"},"386":{"country":"BR","name":"xambre","lat":"-23.7","long":"-53.56"},"387":{"country":"BR","name":"xandico de oliveira","lat":"-19.36","long":"-48.43"},"388":{"country":"BR","name":"xanere","lat":"-26.88","long":"-52.38"},"389":{"country":"BR","name":"xanxere","lat":"-26.88","long":"-52.38"},"390":{"country":"BR","name":"xapeco","lat":"-27.1","long":"-52.6"},"391":{"country":"BR","name":"xapetuba","lat":"-18.86","long":"-48.56"},"392":{"country":"BR","name":"xapuri","lat":"-10.65","long":"-68.51"},"393":{"country":"BR","name":"xapuri","lat":"-15.25","long":"-39.41"},"394":{"country":"BR","name":"xapury","lat":"-10.65","long":"-68.51"},"395":{"country":"BR","name":"xaraco","lat":".58333","long":"-67.23"},"396":{"country":"BR","name":"xareu","lat":"-8.95","long":"-35.18"},"397":{"country":"BR","name":"xarqueada","lat":"-29.26","long":"-56.58"},"398":{"country":"BR","name":"xarqueada","lat":"-22.5","long":"-47.76"},"399":{"country":"BR","name":"xarqueada","lat":"-8.905","long":"-48.16"},"400":{"country":"BR","name":"xarqueda","lat":"-29.96","long":"-51.63"},"401":{"country":"BR","name":"xatelodo","lat":"-20.33","long":"-56.93"},"402":{"country":"BR","name":"xavantes","lat":"-23.03","long":"-49.71"},"403":{"country":"BR","name":"xavantina","lat":"-21.25","long":"-52.8"},"404":{"country":"BR","name":"xavantina","lat":"-14.66","long":"-52.35"},"405":{"country":"BR","name":"xavantina","lat":"-27.08","long":"-52.33"},"406":{"country":"BR","name":"xavier","lat":"-12.2","long":"-41.65"},"407":{"country":"BR","name":"xavier","lat":"-5.15","long":"-40.81"},"408":{"country":"BR","name":"xavier","lat":"-6.983","long":"-37.96"},"409":{"country":"BR","name":"xavier","lat":"-7.816","long":"-41.63"},"410":{"country":"BR","name":"xavier","lat":"-23.02","long":"-43.55"},"411":{"country":"BR","name":"xavier","lat":"-22.36","long":"-48"},"412":{"country":"BR","name":"xaxim cercado","lat":"-25.48","long":"-49.26"},"413":{"country":"BR","name":"xaxim","lat":"-24.73","long":"-53.81"},"414":{"country":"BR","name":"xaxim","lat":"-26.93","long":"-52.51"},"415":{"country":"BR","name":"xera","lat":"-23.44","long":"-52.58"},"416":{"country":"BR","name":"xerem","lat":"-22.58","long":"-43.29"},"417":{"country":"BR","name":"xerente","lat":"-9.529","long":"-48.31"},"418":{"country":"BR","name":"xereu","lat":"-8.95","long":"-35.18"},"419":{"country":"BR","name":"xexeu","lat":"-8.816","long":"-35.61"},"420":{"country":"BR","name":"xibaua","lat":"-4.879","long":"-66.89"},"421":{"country":"BR","name":"xilili","lat":"-8.416","long":"-37.21"},"422":{"country":"BR","name":"ximbo","lat":"-23.11","long":"-47.95"},"423":{"country":"BR","name":"xingo","lat":"-9.4","long":"-37.96"},"424":{"country":"BR","name":"xingo","lat":"-9.566","long":"-38.06"},"425":{"country":"BR","name":"xingu","lat":"-7.733","long":"-68.71"},"426":{"country":"BR","name":"xingu","lat":"-9.633","long":"-45.43"},"427":{"country":"BR","name":"xinxo","lat":"-7.766","long":"-36.86"},"428":{"country":"BR","name":"xique-xique","lat":"-10.83","long":"-42.73"},"429":{"country":"BR","name":"xiquexique","lat":"-4.833","long":"-41.03"},"430":{"country":"BR","name":"xique-xique","lat":"-6.683","long":"-42.15"},"431":{"country":"BR","name":"xiquexique","lat":"-6.25","long":"-37.96"},"432":{"country":"BR","name":"xiquexique","lat":"-7.7","long":"-37.28"},"433":{"country":"BR","name":"xique-xique","lat":"-8.35","long":"-38"},"434":{"country":"BR","name":"xiririca","lat":"-23.15","long":"-47.60"},"435":{"country":"BR","name":"xiriri","lat":"3.2333","long":"-60.51"},"436":{"country":"BR","name":"xiru","lat":"-21.18","long":"-56.43"},"437":{"country":"BR","name":"xixas","lat":"-3.825","long":"-42.80"},"438":{"country":"BR","name":"xixa","lat":"-10.06","long":"-43.13"},"439":{"country":"BR","name":"xixa","lat":"-15.58","long":"-49.98"},"440":{"country":"BR","name":"xixebal","lat":"-7.25","long":"-48.21"},"441":{"country":"BR","name":"xonim","lat":"-18.63","long":"-42.05"},"442":{"country":"BR","name":"xorroxo","lat":"-8.983","long":"-39.1"},"443":{"country":"BR","name":"xoto","lat":"-22.29","long":"-42.81"},"444":{"country":"BR","name":"xucuru","lat":"-8.25","long":"-36.6"},"445":{"country":"BR","name":"xui","lat":"-33.68","long":"-53.45"},"446":{"country":"BR","name":"xupe","lat":"-4.533","long":"-45.35"},"447":{"country":"BR","name":"xuque","lat":"-10.03","long":"-38.58"},"448":{"country":"BW","name":"xhane","lat":"-20.23","long":"25.066"},"449":{"country":"BZ","name":"xaibe","lat":"18.383","long":"-88.43"},"450":{"country":"BZ","name":"xaxe venice","lat":"17.533","long":"-89.13"},"451":{"country":"BZ","name":"xaxe venic","lat":"17.533","long":"-89.13"},"452":{"country":"BZ","name":"xcanha","lat":"18.0","long":"-88.35"},"453":{"country":"BZ","name":"xcanluum","lat":"18.383","long":"-88.45"},"454":{"country":"BZ","name":"xpicilha village","lat":"16.028","long":"-89.21"},"455":{"country":"BZ","name":"xpicilha","lat":"16.028","long":"-89.21"},"456":{"country":"CN","name":"xabart","lat":"49.8","long":"119.91"},"457":{"country":"CN","name":"xabba","lat":"30.8","long":"96.2"},"458":{"country":"CN","name":"xabgeding","lat":"29.204","long":"88.304"},"459":{"country":"CN","name":"xabrang","lat":"35.55","long":"101.9"},"460":{"country":"CN","name":"xabyaisamba","lat":"30.866","long":"96.4"},"461":{"country":"CN","name":"xabyai","lat":"30.866","long":"96.4"},"462":{"country":"CN","name":"xadadong","lat":"40.973","long":"83.768"},"463":{"country":"CN","name":"xadeng","lat":"29.002","long":"91.302"},"464":{"country":"CN","name":"xadiliq","lat":"37.933","long":"86.1"},"465":{"country":"CN","name":"xador","lat":"28.401","long":"86.501"},"466":{"country":"CN","name":"xagai","lat":"31.202","long":"97.102"},"467":{"country":"CN","name":"xagar","lat":"30.55","long":"86.366"},"468":{"country":"CN","name":"xaga","lat":"28.766","long":"85.766"},"469":{"country":"CN","name":"xagba","lat":"28.502","long":"92.702"},"470":{"country":"CN","name":"xagdomba","lat":"34.099","long":"102.74"},"471":{"country":"CN","name":"xagjang","lat":"29.05","long":"92.22"},"472":{"country":"CN","name":"xaglho","lat":"29.004","long":"92.104"},"473":{"country":"CN","name":"xagmakajor","lat":"31.5","long":"82.3"},"474":{"country":"CN","name":"xagna","lat":"31.1","long":"85.3"},"475":{"country":"CN","name":"xago","lat":"30.966","long":"88.333"},"476":{"country":"CN","name":"xagqu","lat":"31.801","long":"92.801"},"477":{"country":"CN","name":"xagrong","lat":"32.005","long":"92.505"},"478":{"country":"CN","name":"xahabulaka","lat":"42.2","long":"83.25"},"479":{"country":"CN","name":"xahbulak","lat":"42.2","long":"83.25"},"480":{"country":"CN","name":"xaidulla","lat":"36.416","long":"77.952"},"481":{"country":"CN","name":"xaigar","lat":"28.902","long":"88.302"},"482":{"country":"CN","name":"xainbatang","lat":"29.901","long":"92.801"},"483":{"country":"CN","name":"xainrongma","lat":"32.006","long":"92.506"},"484":{"country":"CN","name":"xain","lat":"29.103","long":"93.703"},"485":{"country":"CN","name":"xainza","lat":"30.933","long":"88.633"},"486":{"country":"CN","name":"xainzaxian muchang","lat":"31.1","long":"87.8"},"487":{"country":"CN","name":"xaiqe","lat":"29.005","long":"89.305"},"488":{"country":"CN","name":"xaisang","lat":"29.701","long":"88.801"},"489":{"country":"CN","name":"xaitongmoin","lat":"29.366","long":"88.25"},"490":{"country":"CN","name":"xajing","lat":"39.4","long":"108.4"},"491":{"country":"CN","name":"xakur","lat":"39.833","long":"79.466"},"492":{"country":"CN","name":"xalatang","lat":"31.366","long":"100.78"},"493":{"country":"CN","name":"xalung","lat":"31.3","long":"87.1"},"494":{"country":"CN","name":"xalu","lat":"29.102","long":"88.902"},"495":{"country":"CN","name":"xalxikaay","lat":"47.522","long":"86.215"},"496":{"country":"CN","name":"xalxikay","lat":"47.522","long":"86.215"},"497":{"country":"CN","name":"xalxikay xiang","lat":"47.522","long":"86.215"},"498":{"country":"CN","name":"xamal","lat":"39.593","long":"78.469"},"499":{"country":"CN","name":"xamardeng","lat":"31.401","long":"82.401"},"500":{"country":"CN","name":"xambabazar","lat":"36.886","long":"81.509"},"501":{"country":"CN","name":"xambabazar zhen","lat":"36.886","long":"81.509"},"502":{"country":"CN","name":"xamba","lat":"31.706","long":"96.306"},"503":{"country":"CN","name":"xamba","lat":"40.884","long":"107.14"},"504":{"country":"CN","name":"xamco","lat":"30.301","long":"85.601"},"505":{"country":"CN","name":"xamje","lat":"28.601","long":"97.201"},"506":{"country":"CN","name":"xamkyim","lat":"31.401","long":"96.301"},"507":{"country":"CN","name":"xamqu","lat":"31.504","long":"93.804"},"508":{"country":"CN","name":"xamtang","lat":"31.306","long":"96.906"},"509":{"country":"CN","name":"xanbabazar","lat":"36.886","long":"81.509"},"510":{"country":"CN","name":"xan eriq","lat":"39.254","long":"76.397"},"511":{"country":"CN","name":"xangba","lat":"31.8","long":"79.7"},"512":{"country":"CN","name":"xangda","lat":"32.25","long":"96.216"},"513":{"country":"CN","name":"xangda","lat":"28.7","long":"90.4"},"514":{"country":"CN","name":"xangdin hural","lat":"42.833","long":"110.58"},"515":{"country":"CN","name":"xangdoring","lat":"32.05","long":"81.983"},"516":{"country":"CN","name":"xangd sum","lat":"42.916","long":"115.02"},"517":{"country":"CN","name":"xangd","lat":"40.535","long":"111.08"},"518":{"country":"CN","name":"xangd zhen","lat":"40.535","long":"111.08"},"519":{"country":"CN","name":"xangga","lat":"28.902","long":"92.402"},"520":{"country":"CN","name":"xanglain","lat":"27.302","long":"88.802"},"521":{"country":"CN","name":"xangqenda","lat":"32.003","long":"93.303"},"522":{"country":"CN","name":"xang","lat":"35.966","long":"97.9"},"523":{"country":"CN","name":"xangzha","lat":"31.966","long":"94.966"},"524":{"country":"CN","name":"xaniqatam","lat":"41.466","long":"83.133"},"525":{"country":"CN","name":"xanyaylaq","lat":"42.4","long":"80.866"},"526":{"country":"CN","name":"xarag mori","lat":"38.8","long":"109.58"},"527":{"country":"CN","name":"xarag","lat":"36.4","long":"98.183"},"528":{"country":"CN","name":"xara","lat":"28.383","long":"92.05"},"529":{"country":"CN","name":"xarba","lat":"30.466","long":"100.08"},"530":{"country":"CN","name":"xar bulag","lat":"39.383","long":"104.78"},"531":{"country":"CN","name":"xar burd","lat":"40.161","long":"104.80"},"532":{"country":"CN","name":"xardong","lat":"31.433","long":"84.666"},"533":{"country":"CN","name":"xargai","lat":"32.308","long":"92.808"},"534":{"country":"CN","name":"xargo","lat":"29.003","long":"91.803"},"535":{"country":"CN","name":"xar gut","lat":"46.616","long":"118.7"},"536":{"country":"CN","name":"xar holoi","lat":"42.55","long":"120.7"},"537":{"country":"CN","name":"xar hudag","lat":"45.1","long":"114.45"},"538":{"country":"CN","name":"xarida","lat":"31.401","long":"97.801"},"539":{"country":"CN","name":"xari","lat":"31.1","long":"94.1"},"540":{"country":"CN","name":"xarlag","lat":"38.033","long":"108.66"},"541":{"country":"CN","name":"xarla","lat":"31.302","long":"95.602"},"542":{"country":"CN","name":"xarling","lat":"30.101","long":"91.701"},"543":{"country":"CN","name":"xarlung","lat":"27.701","long":"89.101"},"544":{"country":"CN","name":"xarma","lat":"30.7","long":"92.7"},"545":{"country":"CN","name":"xar moron sum","lat":"42.035","long":"111.52"},"546":{"country":"CN","name":"xarnga","lat":"31.8","long":"93.5"},"547":{"country":"CN","name":"xaroi","lat":"33.866","long":"100.36"},"548":{"country":"CN","name":"xarqogmar","lat":"29","long":"92.6"},"549":{"country":"CN","name":"xarqog","lat":"28.801","long":"89.601"},"550":{"country":"CN","name":"xarri","lat":"27.415","long":"88.915"},"551":{"country":"CN","name":"xarrixung","lat":"31.7","long":"97.4"},"552":{"country":"CN","name":"xarru","lat":"29.102","long":"86.102"},"553":{"country":"CN","name":"xarsingma","lat":"27.494","long":"88.952"},"554":{"country":"CN","name":"xar tal","lat":"43.066","long":"119.31"},"555":{"country":"CN","name":"xar tolgoin belqir","lat":"35.583","long":"97.433"},"556":{"country":"CN","name":"xaru","lat":"30.7","long":"98.6"},"557":{"country":"CN","name":"xarwa","lat":"28.8","long":"90.5"},"558":{"country":"CN","name":"xar","lat":"29.103","long":"92.803"},"559":{"country":"CN","name":"xar","lat":"42.1","long":"121.91"},"560":{"country":"CN","name":"xarxoi","lat":"29.403","long":"89.403"},"561":{"country":"CN","name":"xarxung","lat":"28.801","long":"86.401"},"562":{"country":"CN","name":"xasoi","lat":"29.004","long":"91.704"},"563":{"country":"CN","name":"xat","lat":"42.639","long":"80.558"},"564":{"country":"CN","name":"xaug","lat":"27.703","long":"91.903"},"565":{"country":"CN","name":"xaxa","lat":"32.9","long":"82.733"},"566":{"country":"CN","name":"xayar","lat":"41.23","long":"82.805"},"567":{"country":"CN","name":"xayi","lat":"31.401","long":"84.601"},"568":{"country":"CN","name":"xazgat","lat":"46.333","long":"86.366"},"569":{"country":"CN","name":"xebert","lat":"44.033","long":"122"},"570":{"country":"CN","name":"xedoi","lat":"31.403","long":"95.603"},"571":{"country":"CN","name":"xegar","lat":"28.633","long":"87.083"},"572":{"country":"CN","name":"xegil","lat":"41.485","long":"79.686"},"573":{"country":"CN","name":"xehila","lat":"41.485","long":"79.686"},"574":{"country":"CN","name":"xejing","lat":"42.316","long":"86.382"},"575":{"country":"CN","name":"xekar","lat":"39.866","long":"77.433"},"576":{"country":"CN","name":"xemai","lat":"31.404","long":"95.604"},"577":{"country":"CN","name":"xemapu","lat":"29.7","long":"88.8"},"578":{"country":"CN","name":"xema","lat":"31.101","long":"96.301"},"579":{"country":"CN","name":"xemirxek","lat":"47.833","long":"87.966"},"580":{"country":"CN","name":"xemo","lat":"28.005","long":"91.005"},"581":{"country":"CN","name":"xenpe","lat":"28.501","long":"86.501"},"582":{"country":"CN","name":"xeqag","lat":"33.501","long":"93.601"},"583":{"country":"CN","name":"xequng","lat":"29.801","long":"88.001"},"584":{"country":"CN","name":"xerong","lat":"29.301","long":"90.801"},"585":{"country":"CN","name":"xerwa","lat":"30.1","long":"81.3"},"586":{"country":"CN","name":"xesheklik","lat":"38.633","long":"88.5"},"587":{"country":"CN","name":"xetang","lat":"31.303","long":"96.303"},"588":{"country":"CN","name":"xewo","lat":"28.1","long":"92.4"},"589":{"country":"CN","name":"xexung","lat":"31.41","long":"95.62"},"590":{"country":"CN","name":"xezhag","lat":"31.202","long":"90.302"},"591":{"country":"CN","name":"xhuxiang","lat":"32.318","long":"117.21"},"592":{"country":"CN","name":"xiaaisha","lat":"39.087","long":"115.07"},"593":{"country":"CN","name":"xiaan gongshe","lat":"31.801","long":"93.501"},"594":{"country":"CN","name":"xiaangong","lat":"28.153","long":"121.35"},"595":{"country":"CN","name":"xiaang","lat":"30.744","long":"120.11"},"596":{"country":"CN","name":"xiaanjiao","lat":"29.404","long":"116.00"},"597":{"country":"CN","name":"xiaankeng","lat":"26.857","long":"116.04"},"598":{"country":"CN","name":"xiaanlongzhuang","lat":"36.044","long":"106.14"},"599":{"country":"CN","name":"xiaan shuichan","lat":"30.744","long":"120.11"},"600":{"country":"CN","name":"xiaanuzhe","lat":"24.586","long":"102.13"},"601":{"country":"CN","name":"xiaan","lat":"37.578","long":"111.13"},"602":{"country":"CN","name":"xiaan","lat":"23.574","long":"117.31"},"603":{"country":"CN","name":"xiaan","lat":"33.151","long":"113.38"},"604":{"country":"CN","name":"xiaan","lat":"39.733","long":"115.05"},"605":{"country":"CN","name":"xiaan","lat":"31.8","long":"93.5"},"606":{"country":"CN","name":"xiaan","lat":"23.857","long":"116.79"},"607":{"country":"CN","name":"xiaan","lat":"32.616","long":"101.8"},"608":{"country":"CN","name":"xiaanxi","lat":"30.857","long":"111.10"},"609":{"country":"CN","name":"xiaanyuan","lat":"25.093","long":"109.99"},"610":{"country":"CN","name":"xiaao","lat":"27.909","long":"120.68"},"611":{"country":"CN","name":"xiaao","lat":"25.839","long":"117.25"},"612":{"country":"CN","name":"xiaao","lat":"30.918","long":"115.19"},"613":{"country":"CN","name":"xiaao","lat":"24.316","long":"107.91"},"614":{"country":"CN","name":"xiaao","lat":"23.352","long":"112.47"},"615":{"country":"CN","name":"xia awat","lat":"39.206","long":"77.644"},"616":{"country":"CN","name":"xiaayang","lat":"34.405","long":"104.05"},"617":{"country":"CN","name":"xiaazitan","lat":"34.715","long":"103.28"},"618":{"country":"CN","name":"xiababang","lat":"31.520","long":"120.45"},"619":{"country":"CN","name":"xiabaduizi","lat":"42.593","long":"122.55"},"620":{"country":"CN","name":"xiabadu","lat":"34.799","long":"103.90"},"621":{"country":"CN","name":"xiaba gongshe","lat":"28.3","long":"91.2"},"622":{"country":"CN","name":"xiabagou","lat":"32.907","long":"107.52"},"623":{"country":"CN","name":"xiabagu","lat":"36.666","long":"110.6"},"624":{"country":"CN","name":"xiabahe","lat":"30.433","long":"115.03"},"625":{"country":"CN","name":"xiabahui","lat":"40.944","long":"123.18"},"626":{"country":"CN","name":"xiabahu","lat":"29.187","long":"109.57"},"627":{"country":"CN","name":"xiabaicheng","lat":"36.156","long":"105.58"},"628":{"country":"CN","name":"xiabaicun","lat":"35.445","long":"111.26"},"629":{"country":"CN","name":"xiabaihu","lat":"28.294","long":"109.91"},"630":{"country":"CN","name":"xiabaijiabaozi","lat":"40.145","long":"123.82"},"631":{"country":"CN","name":"xiabaijiazhai","lat":"29.245","long":"109.73"},"632":{"country":"CN","name":"xiabaijun","lat":"25.627","long":"109.66"},"633":{"country":"CN","name":"xiabailing","lat":"27.153","long":"117.21"},"634":{"country":"CN","name":"xiabailiyingzi","lat":"41.890","long":"121.12"},"635":{"country":"CN","name":"xiabaimaojiang","lat":"26.787","long":"111.06"},"636":{"country":"CN","name":"xiabaimiao","lat":"40.601","long":"119.47"},"637":{"country":"CN","name":"xiabainikeng","lat":"24.646","long":"115.95"},"638":{"country":"CN","name":"xiabainipo","lat":"26.530","long":"101.55"},"639":{"country":"CN","name":"xiabaiping","lat":"36.983","long":"109.6"},"640":{"country":"CN","name":"xiabaiquan","lat":"39.113","long":"112.51"},"641":{"country":"CN","name":"xiabaisang nongchang","lat":"30.152","long":"101.49"},"642":{"country":"CN","name":"xiabaisha","lat":"24.341","long":"118.01"},"643":{"country":"CN","name":"xiabaishaxi","lat":"24.530","long":"115.70"},"644":{"country":"CN","name":"xiabaishe","lat":"26.810","long":"109.82"},"645":{"country":"CN","name":"xiabaishiping","lat":"30.451","long":"111.55"},"646":{"country":"CN","name":"xiabaishi","lat":"26.815","long":"119.67"},"647":{"country":"CN","name":"xiabaishutan","lat":"35.042","long":"103.95"},"648":{"country":"CN","name":"xiabaishuyao","lat":"34.856","long":"109.05"},"649":{"country":"CN","name":"xiabaitian","lat":"26.37","long":"111.99"},"650":{"country":"CN","name":"xiabai","lat":"30.486","long":"119.99"},"651":{"country":"CN","name":"xiabai","lat":"25.991","long":"106.90"},"652":{"country":"CN","name":"xiabaiyangcun","lat":"39.753","long":"114.02"},"653":{"country":"CN","name":"xiabaiyangping","lat":"30.908","long":"111.35"},"654":{"country":"CN","name":"xiabaiyashui","lat":"26.503","long":"111.34"},"655":{"country":"CN","name":"xiabaiyiguan","lat":"24.792","long":"102.13"},"656":{"country":"CN","name":"xiabaiyunan","lat":"26.52","long":"111.18"},"657":{"country":"CN","name":"xiabaizhang","lat":"28.011","long":"118.42"},"658":{"country":"CN","name":"xiabaizhugou","lat":"41.722","long":"121.52"},"659":{"country":"CN","name":"xiabaizigou","lat":"41.263","long":"120.59"},"660":{"country":"CN","name":"xiabakou","lat":"32.503","long":"107.48"},"661":{"country":"CN","name":"xiabalang","lat":"39.266","long":"103.73"},"662":{"country":"CN","name":"xiabalian","lat":"25.411","long":"113.91"},"663":{"country":"CN","name":"xiabaling","lat":"25.569","long":"115.82"},"664":{"country":"CN","name":"xiabali","lat":"32.995","long":"105.23"},"665":{"country":"CN","name":"xiabaliyingzi","lat":"42.084","long":"121.16"},"666":{"country":"CN","name":"xiabamaoshan","lat":"29.104","long":"115.40"},"667":{"country":"CN","name":"xiabamiao","lat":"31.630","long":"106.46"},"668":{"country":"CN","name":"xiabancheng","lat":"40.770","long":"118.16"},"669":{"country":"CN","name":"xiabanchong","lat":"29.215","long":"105.33"},"670":{"country":"CN","name":"xiabancun","lat":"26.402","long":"117.43"},"671":{"country":"CN","name":"xiabande","lat":"45.366","long":"125"},"672":{"country":"CN","name":"xiabangang","lat":"28.369","long":"114.02"},"673":{"country":"CN","name":"xiabanjiao","lat":"26.185","long":"112.26"},"674":{"country":"CN","name":"xiabanjing","lat":"34.152","long":"117.06"},"675":{"country":"CN","name":"xiabanjing","lat":"24.990","long":"115.97"},"676":{"country":"CN","name":"xiabankeng","lat":"29.966","long":"117.35"},"677":{"country":"CN","name":"xiabankeng","lat":"29.203","long":"114.08"},"678":{"country":"CN","name":"xiabanling","lat":"26.124","long":"116.06"},"679":{"country":"CN","name":"xiabanling","lat":"27.159","long":"119.34"},"680":{"country":"CN","name":"xiabanqiao","lat":"24.086","long":"115.30"},"681":{"country":"CN","name":"xiabanqiao","lat":"26.386","long":"101.76"},"682":{"country":"CN","name":"xiabanqing","lat":"27.934","long":"105.77"},"683":{"country":"CN","name":"xiabanquan","lat":"40.48","long":"115.90"},"684":{"country":"CN","name":"xiabantian","lat":"26.023","long":"116.26"},"685":{"country":"CN","name":"xiabantuan","lat":"26.902","long":"115.28"},"686":{"country":"CN","name":"xiabanwa","lat":"25.657","long":"109.68"},"687":{"country":"CN","name":"xiaban","lat":"29.426","long":"121.03"},"688":{"country":"CN","name":"xiaban","lat":"25.308","long":"117.99"},"689":{"country":"CN","name":"xiabanyang","lat":"25.831","long":"117.41"},"690":{"country":"CN","name":"xiabaobao","lat":"33.152","long":"113.75"},"691":{"country":"CN","name":"xiabaocun","lat":"28.329","long":"115.51"},"692":{"country":"CN","name":"xiabaocun","lat":"35.641","long":"111.09"},"693":{"country":"CN","name":"xiabaolin","lat":"41.444","long":"121.50"},"694":{"country":"CN","name":"xiabaolong","lat":"27.493","long":"115.02"},"695":{"country":"CN","name":"xiabaolong","lat":"24.455","long":"115.74"},"696":{"country":"CN","name":"xiabaoping","lat":"31.009","long":"111.14"},"697":{"country":"CN","name":"xiabaopo","lat":"18.302","long":"109.48"},"698":{"country":"CN","name":"xiabaoqiao","lat":"28.667","long":"115.20"},"699":{"country":"CN","name":"xiabaoshan","lat":"26.481","long":"117.63"},"700":{"country":"CN","name":"xiabaosizhen","lat":"36.850","long":"115.37"},"701":{"country":"CN","name":"xiabao","lat":"31.003","long":"119.33"},"702":{"country":"CN","name":"xiabao","lat":"28.504","long":"119.50"},"703":{"country":"CN","name":"xiabao","lat":"25.475","long":"115.73"},"704":{"country":"CN","name":"xiabao","lat":"32.341","long":"120.41"},"705":{"country":"CN","name":"xiabao","lat":"25.012","long":"118.62"},"706":{"country":"CN","name":"xiabao","lat":"40.678","long":"116.14"},"707":{"country":"CN","name":"xiabao","lat":"26.641","long":"109.78"},"708":{"country":"CN","name":"xiabao","lat":"30.202","long":"111.26"},"709":{"country":"CN","name":"xiabao","lat":"39.612","long":"121.47"},"710":{"country":"CN","name":"xiabao","lat":"23.974","long":"115.96"},"711":{"country":"CN","name":"xiabaoxiang","lat":"36.000","long":"105.90"},"712":{"country":"CN","name":"xiabaozi","lat":"33.132","long":"104.61"},"713":{"country":"CN","name":"xiabaozi","lat":"39.763","long":"123.19"},"714":{"country":"CN","name":"xiabaozi","lat":"35.636","long":"105.81"},"715":{"country":"CN","name":"xiabaqian","lat":"27.946","long":"118.17"},"716":{"country":"CN","name":"xiabashang","lat":"35.708","long":"105.09"},"717":{"country":"CN","name":"xiabatai","lat":"41.890","long":"121.50"},"718":{"country":"CN","name":"xiabataizhuan","lat":"31.854","long":"108.32"},"719":{"country":"CN","name":"xiabatang","lat":"26.614","long":"101.86"},"720":{"country":"CN","name":"xiabatou","lat":"25.784","long":"119.40"},"721":{"country":"CN","name":"xiabawushe","lat":"31.760","long":"98.814"},"722":{"country":"CN","name":"xiaba","lat":"29.894","long":"118.67"},"723":{"country":"CN","name":"xiaba","lat":"30.021","long":"121.04"},"724":{"country":"CN","name":"xiaba","lat":"24.899","long":"114.93"},"725":{"country":"CN","name":"xiaba","lat":"31.316","long":"119.11"},"726":{"country":"CN","name":"xiaba","lat":"29.069","long":"106.51"},"727":{"country":"CN","name":"xiaba","lat":"24.879","long":"116.03"},"728":{"country":"CN","name":"xiaba","lat":"32.029","long":"110.22"},"729":{"country":"CN","name":"xiaba","lat":"28.303","long":"91.203"},"730":{"country":"CN","name":"xiaba","lat":"32.968","long":"104.64"},"731":{"country":"CN","name":"xiaba","lat":"29.265","long":"102.29"},"732":{"country":"CN","name":"xiaba","lat":"33.104","long":"106.46"},"733":{"country":"CN","name":"xiaba","lat":"24.356","long":"102.86"},"734":{"country":"CN","name":"xiaba","lat":"22.479","long":"111.19"},"735":{"country":"CN","name":"xiabaxiang","lat":"23.741","long":"115.95"},"736":{"country":"CN","name":"xiabaxia","lat":"25.668","long":"109.92"},"737":{"country":"CN","name":"xia bazar","lat":"39.233","long":"76.583"},"738":{"country":"CN","name":"xiabazhai","lat":"32.504","long":"103.05"},"739":{"country":"CN","name":"xiabazhuang","lat":"31.578","long":"119.99"},"740":{"country":"CN","name":"xiabazi","lat":"24.317","long":"116.75"},"741":{"country":"CN","name":"xiabeidong","lat":"21.537","long":"110.58"},"742":{"country":"CN","name":"xiabeidu","lat":"21.746","long":"112.39"},"743":{"country":"CN","name":"xiabeige","lat":"28.413","long":"121.06"},"744":{"country":"CN","name":"xiabeijing","lat":"25.737","long":"115.55"},"745":{"country":"CN","name":"xiabeikeng","lat":"26.205","long":"117.30"},"746":{"country":"CN","name":"xiabeilong","lat":"29.833","long":"115.33"},"747":{"country":"CN","name":"xiabeiquan","lat":"39.316","long":"114.38"},"748":{"country":"CN","name":"xiabeishan","lat":"29.647","long":"120.78"},"749":{"country":"CN","name":"xiabeisi","lat":"30.811","long":"119.59"},"750":{"country":"CN","name":"xiabeisi","lat":"33.027","long":"113.56"},"751":{"country":"CN","name":"xiabeitang","lat":"24.463","long":"116.72"},"752":{"country":"CN","name":"xiabeitou","lat":"39.303","long":"114.67"},"753":{"country":"CN","name":"xiabei","lat":"27.086","long":"116.41"},"754":{"country":"CN","name":"xiabei","lat":"22.764","long":"114.34"},"755":{"country":"CN","name":"xiabiancun","lat":"26.305","long":"117.13"},"756":{"country":"CN","name":"xiabian muchang","lat":"34.215","long":"104.03"},"757":{"country":"CN","name":"xiabian","lat":"33.416","long":"112.67"},"758":{"country":"CN","name":"xiabian","lat":"29.719","long":"114.69"},"759":{"country":"CN","name":"xiabian","lat":"40.846","long":"120.48"},"760":{"country":"CN","name":"xiabian","lat":"22.882","long":"113.65"},"761":{"country":"CN","name":"xiabian zhangjia","lat":"27.056","long":"114.60"},"762":{"country":"CN","name":"xiabiao","lat":"42.743","long":"121.44"},"763":{"country":"CN","name":"xiabiena","lat":"34.777","long":"103.83"},"764":{"country":"CN","name":"xiabiexie","lat":"28.979","long":"109.94"},"765":{"country":"CN","name":"xiabimentun","lat":"42.267","long":"128.77"},"766":{"country":"CN","name":"xiabingyu","lat":"40.028","long":"122.96"},"767":{"country":"CN","name":"xiabi","lat":"29.580","long":"115.30"},"768":{"country":"CN","name":"xiabiyuan","lat":"25.485","long":"118.83"},"769":{"country":"CN","name":"xiabizhai","lat":"29.396","long":"109.73"},"770":{"country":"CN","name":"xiabizhuang","lat":"28.337","long":"116.93"},"771":{"country":"CN","name":"xiabizhu","lat":"29.594","long":"121.17"},"772":{"country":"CN","name":"xiabocheng","lat":"35.117","long":"111.83"},"773":{"country":"CN","name":"xiabocun","lat":"31.336","long":"120.44"},"774":{"country":"CN","name":"xia boingor","lat":"32.8","long":"99.7"},"775":{"country":"CN","name":"xiabotou","lat":"38.057","long":"117.78"},"776":{"country":"CN","name":"xiabowancheng","lat":"25.834","long":"112.05"},"777":{"country":"CN","name":"xiabozhengou","lat":"41.865","long":"120.38"},"778":{"country":"CN","name":"xiabozhu","lat":"25.117","long":"115.82"},"779":{"country":"CN","name":"xiabujiding","lat":"29.204","long":"88.304"},"780":{"country":"CN","name":"xiabuji","lat":"28.308","long":"116.38"},"781":{"country":"CN","name":"xiabuji xiang","lat":"28.308","long":"116.38"},"782":{"country":"CN","name":"xiabulao","lat":"25.757","long":"118.26"},"783":{"country":"CN","name":"xiabutou","lat":"29.326","long":"119.50"},"784":{"country":"CN","name":"xiabu","lat":"27.983","long":"120.71"},"785":{"country":"CN","name":"xiabu","lat":"28.272","long":"117.02"},"786":{"country":"CN","name":"xiabu","lat":"24.994","long":"118.76"},"787":{"country":"CN","name":"xiabu","lat":"37.149","long":"111.56"},"788":{"country":"CN","name":"xiabu","lat":"23.391","long":"115.78"},"789":{"country":"CN","name":"xiacaiao","lat":"29.519","long":"121.21"},"790":{"country":"CN","name":"xiacaidatang","lat":"25.679","long":"110.47"},"791":{"country":"CN","name":"xiacaidi","lat":"25.936","long":"117.18"},"792":{"country":"CN","name":"xiacaijiawan","lat":"30.804","long":"112.05"},"793":{"country":"CN","name":"xiacaijiazhou","lat":"29.806","long":"116.18"},"794":{"country":"CN","name":"xiacai linchang","lat":"23.948","long":"117.67"},"795":{"country":"CN","name":"xiacai","lat":"23.948","long":"117.67"},"796":{"country":"CN","name":"xiacai","lat":"34.038","long":"105.23"},"797":{"country":"CN","name":"xiacaiyuan","lat":"29.270","long":"114.21"},"798":{"country":"CN","name":"xiacaiyuan","lat":"23.933","long":"113.15"},"799":{"country":"CN","name":"xiacangpu","lat":"30.05","long":"116.4"},"800":{"country":"CN","name":"xiacang","lat":"27.665","long":"118.68"},"801":{"country":"CN","name":"xiacang","lat":"34.656","long":"103.32"},"802":{"country":"CN","name":"xiacang","lat":"39.786","long":"117.41"},"803":{"country":"CN","name":"xiacangzi","lat":"24.793","long":"115.94"},"804":{"country":"CN","name":"xiacaoba","lat":"34.168","long":"104.77"},"805":{"country":"CN","name":"xiacaochuan","lat":"33.654","long":"104.83"},"806":{"country":"CN","name":"xiacaocun","lat":"38.062","long":"113.33"},"807":{"country":"CN","name":"xiacaocun","lat":"23.017","long":"113.62"},"808":{"country":"CN","name":"xiacaojia","lat":"28.740","long":"115.73"},"809":{"country":"CN","name":"xiacaojie","lat":"25.668","long":"119.30"},"810":{"country":"CN","name":"xiacaomaogou","lat":"42.148","long":"120.59"},"811":{"country":"CN","name":"xiacaomenwan","lat":"30.613","long":"115.24"},"812":{"country":"CN","name":"xiacaonian","lat":"40.312","long":"118.65"},"813":{"country":"CN","name":"xiacaoqiao","lat":"29.183","long":"118.83"},"814":{"country":"CN","name":"xiacaotang","lat":"23.726","long":"116.53"},"815":{"country":"CN","name":"xiacaotan","lat":"33.965","long":"106.60"},"816":{"country":"CN","name":"xiacaowan","lat":"33.183","long":"118.21"},"817":{"country":"CN","name":"xiacao","lat":"29.663","long":"116.53"},"818":{"country":"CN","name":"xiacao","lat":"24.120","long":"117.68"},"819":{"country":"CN","name":"xiacao","lat":"33.106","long":"113.51"},"820":{"country":"CN","name":"xiacengpu","lat":"25.183","long":"111.19"},"821":{"country":"CN","name":"xiacengpu zhen","lat":"25.189","long":"111.18"},"822":{"country":"CN","name":"xiacen","lat":"22.846","long":"112.23"},"823":{"country":"CN","name":"xiachaba","lat":"34.968","long":"103.53"},"824":{"country":"CN","name":"xiachabu","lat":"30.366","long":"113.6"},"825":{"country":"CN","name":"xiachaikou","lat":"30.630","long":"112.89"},"826":{"country":"CN","name":"xiachaimatou","lat":"29.207","long":"112.27"},"827":{"country":"CN","name":"xiachakeng","lat":"27.826","long":"115.93"},"828":{"country":"CN","name":"xiachakou","lat":"29.230","long":"117.74"},"829":{"country":"CN","name":"xiachakou","lat":"35.670","long":"105.14"},"830":{"country":"CN","name":"xia chamco","lat":"28.502","long":"87.502"},"831":{"country":"CN","name":"xiachanggao","lat":"41.748","long":"121.03"},"832":{"country":"CN","name":"xiachanggou","lat":"33.333","long":"106.70"},"833":{"country":"CN","name":"xiachangkeng","lat":"30.016","long":"117.88"},"834":{"country":"CN","name":"xiachangle","lat":"38.914","long":"112.86"},"835":{"country":"CN","name":"xiachangling","lat":"24.981","long":"115.66"},"836":{"country":"CN","name":"xiachanglingzi","lat":"42.879","long":"124.19"},"837":{"country":"CN","name":"xiachanglin","lat":"26.053","long":"118.39"},"838":{"country":"CN","name":"xiachangmao","lat":"40.754","long":"120.56"},"839":{"country":"CN","name":"xiachangping","lat":"32.680","long":"106.94"},"840":{"country":"CN","name":"xiachangqiu","lat":"25.833","long":"118.21"},"841":{"country":"CN","name":"xiachangshe","lat":"34.847","long":"108.73"},"842":{"country":"CN","name":"xia changsuo","lat":"28.502","long":"87.502"},"843":{"country":"CN","name":"xiachang","lat":"27.593","long":"120.57"},"844":{"country":"CN","name":"xiachang","lat":"28.925","long":"117.15"},"845":{"country":"CN","name":"xiachang","lat":"30.683","long":"112.8"},"846":{"country":"CN","name":"xiachang","lat":"40.923","long":"121.22"},"847":{"country":"CN","name":"xiachang","lat":"19.624","long":"110.79"},"848":{"country":"CN","name":"xiachang","lat":"28.725","long":"104.99"},"849":{"country":"CN","name":"xiachaohu","lat":"29.816","long":"115.50"},"850":{"country":"CN","name":"xiachao","lat":"41.748","long":"117.42"},"851":{"country":"CN","name":"xiachao","lat":"23.555","long":"116.47"},"852":{"country":"CN","name":"xiacha","lat":"25.972","long":"112.16"},"853":{"country":"CN","name":"xiacha","lat":"29.886","long":"115.08"},"854":{"country":"CN","name":"xiacha","lat":"24.596","long":"116.38"},"855":{"country":"CN","name":"xiachaxi","lat":"27.527","long":"119.76"},"856":{"country":"CN","name":"xiachayu","lat":"28.4","long":"97"},"857":{"country":"CN","name":"xiachedaoling","lat":"41.533","long":"125.54"},"858":{"country":"CN","name":"xiachejie","lat":"34.35","long":"119.31"},"859":{"country":"CN","name":"xiacheliang","lat":"26.856","long":"111.11"},"860":{"country":"CN","name":"xiachenba","lat":"28.626","long":"121.37"},"861":{"country":"CN","name":"xiachendeng","lat":"22.979","long":"112.78"},"862":{"country":"CN","name":"xiachengao","lat":"28.222","long":"120.71"},"863":{"country":"CN","name":"xiachenggouwan","lat":"28.310","long":"115.17"},"864":{"country":"CN","name":"xiachengjiawei","lat":"22.669","long":"113.55"},"865":{"country":"CN","name":"xiachengjia","lat":"33.339","long":"105.15"},"866":{"country":"CN","name":"xiachengkou","lat":"29.186","long":"116.77"},"867":{"country":"CN","name":"xiachengli","lat":"29.372","long":"120.45"},"868":{"country":"CN","name":"xiachengshi","lat":"24.175","long":"116.15"},"869":{"country":"CN","name":"xiacheng","lat":"29.814","long":"117.86"},"870":{"country":"CN","name":"xiacheng","lat":"27.599","long":"120.56"},"871":{"country":"CN","name":"xiacheng","lat":"27.245","long":"116.98"},"872":{"country":"CN","name":"xiacheng","lat":"31.375","long":"119.03"},"873":{"country":"CN","name":"xiacheng","lat":"23.980","long":"117.36"},"874":{"country":"CN","name":"xiacheng","lat":"34.996","long":"103.80"},"875":{"country":"CN","name":"xiacheng","lat":"23.477","long":"116.50"},"876":{"country":"CN","name":"xiachengyu","lat":"28.695","long":"118.70"},"877":{"country":"CN","name":"xiachengzi","lat":"44.683","long":"130.45"},"878":{"country":"CN","name":"xiachenjiawo","lat":"31.093","long":"112.46"},"879":{"country":"CN","name":"xiachenjia","lat":"28.515","long":"116.07"},"880":{"country":"CN","name":"xiachenjia","lat":"34.758","long":"109.33"},"881":{"country":"CN","name":"xiachenkeng","lat":"26.056","long":"115.86"},"882":{"country":"CN","name":"xiachenlong","lat":"30.131","long":"115.49"},"883":{"country":"CN","name":"xiachenmenzhao","lat":"30.432","long":"114.59"},"884":{"country":"CN","name":"xiachenwan","lat":"29.593","long":"114.68"},"885":{"country":"CN","name":"xiachenwa","lat":"32.721","long":"113.43"},"886":{"country":"CN","name":"xiachen","lat":"28.933","long":"119.44"},"887":{"country":"CN","name":"xiachen","lat":"24.581","long":"114.86"},"888":{"country":"CN","name":"xiachen","lat":"24.845","long":"117.02"},"889":{"country":"CN","name":"xiachen","lat":"29.683","long":"115.31"},"890":{"country":"CN","name":"xiachen","lat":"23","long":"112.77"},"891":{"country":"CN","name":"xiachenzhen","lat":"28.591","long":"121.44"},"892":{"country":"CN","name":"xiachenzhi","lat":"29.435","long":"101.59"},"893":{"country":"CN","name":"xiachetou","lat":"25.118","long":"110.42"},"894":{"country":"CN","name":"xiache","lat":"31.046","long":"118.39"},"895":{"country":"CN","name":"xiache","lat":"27.140","long":"115.38"},"896":{"country":"CN","name":"xiache","lat":"34.35","long":"119.31"},"897":{"country":"CN","name":"xiache","lat":"25.317","long":"116.93"},"898":{"country":"CN","name":"xiache","lat":"24.661","long":"115.11"},"899":{"country":"CN","name":"xiache xiang","lat":"34.35","long":"119.31"},"900":{"country":"CN","name":"xiache zhen","lat":"24.661","long":"115.11"},"901":{"country":"CN","name":"xiachicha","lat":"39.696","long":"112.33"},"902":{"country":"CN","name":"xiachicun","lat":"31.583","long":"118.80"},"903":{"country":"CN","name":"xiachijiao","lat":"25.508","long":"115.99"},"904":{"country":"CN","name":"xiachikeng","lat":"24.580","long":"116.81"},"905":{"country":"CN","name":"xiachilan","lat":"25.867","long":"110.87"},"906":{"country":"CN","name":"xiachixiaba","lat":"34.011","long":"104.87"},"907":{"country":"CN","name":"xiachi","lat":"27.360","long":"114.11"},"908":{"country":"CN","name":"xiachi","lat":"20.314","long":"110.30"},"909":{"country":"CN","name":"xiachixi","lat":"27.407","long":"119.21"},"910":{"country":"CN","name":"xiachiyuan","lat":"25.888","long":"117.73"},"911":{"country":"CN","name":"xiachongling","lat":"25.684","long":"109.95"},"912":{"country":"CN","name":"xiachongshan","lat":"29.240","long":"120.01"},"913":{"country":"CN","name":"xiachong","lat":"29.675","long":"118.32"},"914":{"country":"CN","name":"xiachong","lat":"27.600","long":"114.20"},"915":{"country":"CN","name":"xiachong","lat":"22.347","long":"113.37"},"916":{"country":"CN","name":"xiachoutun","lat":"39.403","long":"122.03"},"917":{"country":"CN","name":"xiachuang","lat":"28.623","long":"118.72"},"918":{"country":"CN","name":"xiachuankou","lat":"34.271","long":"108.12"},"919":{"country":"CN","name":"xiachuan","lat":"35.441","long":"112.00"},"920":{"country":"CN","name":"xiachuan","lat":"26.045","long":"118.15"},"921":{"country":"CN","name":"xiachuan","lat":"34.452","long":"103.88"},"922":{"country":"CN","name":"xiachuan","lat":"21.650","long":"112.58"},"923":{"country":"CN","name":"xiachuanxingdian","lat":"41.399","long":"120.50"},"924":{"country":"CN","name":"xiachuan zhen","lat":"29.144","long":"118.98"},"925":{"country":"CN","name":"xiachuan zhen","lat":"21.650","long":"112.58"},"926":{"country":"CN","name":"xiachuanzhuang","lat":"35.583","long":"111.16"},"927":{"country":"CN","name":"xiachucun","lat":"20.822","long":"110.08"},"928":{"country":"CN","name":"xiachun","lat":"25.317","long":"117.88"},"929":{"country":"CN","name":"xia cogo","lat":"28.4","long":"87.5"},"930":{"country":"CN","name":"xiacuigou","lat":"33.516","long":"112.74"},"931":{"country":"CN","name":"xiacuijiatun","lat":"39.788","long":"122.08"},"932":{"country":"CN","name":"xiacuijia","lat":"33.321","long":"105.13"},"933":{"country":"CN","name":"xiacuncun","lat":"26.331","long":"117.87"},"934":{"country":"CN","name":"xiacunting","lat":"27.901","long":"119.04"},"935":{"country":"CN","name":"xiacunwan","lat":"30.85","long":"118.76"},"936":{"country":"CN","name":"xiacun","lat":"31.035","long":"118.37"},"937":{"country":"CN","name":"xiacun","lat":"27.525","long":"118.88"},"938":{"country":"CN","name":"xiacun","lat":"26.225","long":"113.90"},"939":{"country":"CN","name":"xiacun","lat":"41.424","long":"128.17"},"940":{"country":"CN","name":"xiacun","lat":"24.988","long":"117.12"},"941":{"country":"CN","name":"xiacun","lat":"25.339","long":"109.59"},"942":{"country":"CN","name":"xiacun","lat":"39.660","long":"116.02"},"943":{"country":"CN","name":"xiacun","lat":"35.644","long":"112.73"},"944":{"country":"CN","name":"xiacun","lat":"36.9","long":"121.5"},"945":{"country":"CN","name":"xiacun","lat":"34.557","long":"108.85"},"946":{"country":"CN","name":"xiacun","lat":"24.834","long":"102.05"},"947":{"country":"CN","name":"xiacun","lat":"23.118","long":"114.51"},"948":{"country":"CN","name":"xiacun","lat":"19.127","long":"110.38"},"949":{"country":"CN","name":"xiacun","lat":"26.907","long":"102.33"},"950":{"country":"CN","name":"xiacunxu","lat":"26.225","long":"113.90"},"951":{"country":"CN","name":"xiacunxu","lat":"23.288","long":"115.94"},"952":{"country":"CN","name":"xiacunyang","lat":"25.614","long":"117.92"},"953":{"country":"CN","name":"xiacun zhen","lat":"27.923","long":"114.94"},"954":{"country":"CN","name":"xiacunzi","lat":"25.726","long":"118.05"},"955":{"country":"CN","name":"xiacuodi","lat":"25.880","long":"117.83"},"956":{"country":"CN","name":"xia cuoguo","lat":"28.4","long":"87.5"},"957":{"country":"CN","name":"xiacuoji","lat":"27.296","long":"120.14"},"958":{"country":"CN","name":"xiacuo","lat":"25.537","long":"118.15"},"959":{"country":"CN","name":"xiacuo","lat":"30.301","long":"85.601"},"960":{"country":"CN","name":"xiacuo","lat":"23.116","long":"116.33"},"961":{"country":"CN","name":"xiadaan","lat":"21.797","long":"111.67"},"962":{"country":"CN","name":"xiadabeigou","lat":"41.483","long":"123.78"},"963":{"country":"CN","name":"xiadachong","lat":"31.720","long":"112.62"},"964":{"country":"CN","name":"xiadadi","lat":"29.475","long":"119.79"},"965":{"country":"CN","name":"xiadaduchuan","lat":"43.636","long":"129.58"},"966":{"country":"CN","name":"xiadae","lat":"18.318","long":"109.45"},"967":{"country":"CN","name":"xiadafeng","lat":"24.172","long":"117.04"},"968":{"country":"CN","name":"xiadagang","lat":"29.370","long":"102.60"},"969":{"country":"CN","name":"xiadagou","lat":"33.569","long":"105.70"},"970":{"country":"CN","name":"xiadagu","lat":"32.222","long":"102.88"},"971":{"country":"CN","name":"xiadahai","lat":"21.456","long":"111.03"},"972":{"country":"CN","name":"xiadahe","lat":"41.009","long":"123.24"},"973":{"country":"CN","name":"xiadaijiatai","lat":"30.101","long":"112.49"},"974":{"country":"CN","name":"xiadaiwanzi","lat":"31.224","long":"112.14"},"975":{"country":"CN","name":"xiadai","lat":"30.133","long":"118.01"},"976":{"country":"CN","name":"xiadai","lat":"32.594","long":"120.57"},"977":{"country":"CN","name":"xiadai","lat":"24.397","long":"117.81"},"978":{"country":"CN","name":"xiadaizi","lat":"23.661","long":"116.97"},"979":{"country":"CN","name":"xiadajing","lat":"23.534","long":"115.54"},"980":{"country":"CN","name":"xiada liangping","lat":"30.065","long":"110.15"},"981":{"country":"CN","name":"xiadalin","lat":"38.856","long":"112.70"},"982":{"country":"CN","name":"xiadalongmen","lat":"28.870","long":"106.05"},"983":{"country":"CN","name":"xiadama","lat":"26.018","long":"118.29"},"984":{"country":"CN","name":"xiadangkou","lat":"25.493","long":"117.50"},"985":{"country":"CN","name":"xiadang","lat":"27.302","long":"119.45"},"986":{"country":"CN","name":"xiadang","lat":"29.480","long":"114.73"},"987":{"country":"CN","name":"xiadang","lat":"29.002","long":"91.302"},"988":{"country":"CN","name":"xiadan","lat":"26.032","long":"114.81"},"989":{"country":"CN","name":"xiadan","lat":"21.204","long":"109.95"},"990":{"country":"CN","name":"xiadanyang","lat":"26.140","long":"119.23"},"991":{"country":"CN","name":"xiadanzhu","lat":"21.928","long":"112.53"},"992":{"country":"CN","name":"xiadaogan","lat":"49.3","long":"129.13"},"993":{"country":"CN","name":"xiadaohong","lat":"38.423","long":"111.82"},"994":{"country":"CN","name":"xiadaohu","lat":"25.193","long":"116.71"},"995":{"country":"CN","name":"xiadao","lat":"26.575","long":"118.26"},"996":{"country":"CN","name":"xiadaoyugou","lat":"33.644","long":"104.22"},"997":{"country":"CN","name":"xiadao zhen","lat":"26.575","long":"118.26"},"998":{"country":"CN","name":"xiadapu","lat":"41.955","long":"124.50"},"999":{"country":"CN","name":"xiadaqing","lat":"28.693","long":"102.44"},"1000":{"country":"CN","name":"xiadataizi","lat":"36.279","long":"106.33"},"1001":{"country":"CN","name":"xiadatang","lat":"25.821","long":"110.07"},"1002":{"country":"CN","name":"xiadatian","lat":"29.103","long":"121.34"},"1003":{"country":"CN","name":"xiadawanqiu","lat":"31.209","long":"113.83"},"1004":{"country":"CN","name":"xiadawan","lat":"39.210","long":"113.73"},"1005":{"country":"CN","name":"xiadawan","lat":"28.723","long":"103.48"},"1006":{"country":"CN","name":"xiadawopu","lat":"41.069","long":"120.61"},"1007":{"country":"CN","name":"xia dawo","lat":"35","long":"99.233"},"1008":{"country":"CN","name":"xiadawu","lat":"26.941","long":"115.28"},"1009":{"country":"CN","name":"xiada","lat":"26.828","long":"109.13"},"1010":{"country":"CN","name":"xiada","lat":"24.019","long":"113.43"},"1011":{"country":"CN","name":"xiadaxing","lat":"43.101","long":"129.52"},"1012":{"country":"CN","name":"xiadaxi","lat":"28.198","long":"118.09"},"1013":{"country":"CN","name":"xiadayang","lat":"27.198","long":"119.40"},"1014":{"country":"CN","name":"xiadaying","lat":"31.802","long":"116.82"},"1015":{"country":"CN","name":"xiadaying","lat":"27.982","long":"105.71"},"1016":{"country":"CN","name":"xiadayuan","lat":"27.510","long":"118.64"},"1017":{"country":"CN","name":"xiadazhicun","lat":"39.475","long":"113.88"},"1018":{"country":"CN","name":"xiadazhuang","lat":"30.479","long":"114.60"},"1019":{"country":"CN","name":"xiadazhuang","lat":"35.944","long":"105.99"},"1020":{"country":"CN","name":"xiadazu","lat":"32.254","long":"102.17"},"1021":{"country":"CN","name":"xiadean","lat":"25.358","long":"117.66"},"1022":{"country":"CN","name":"xiadehe xiang","lat":"40.998","long":"123.27"},"1023":{"country":"CN","name":"xiadelongwan","lat":"40.688","long":"116.38"},"1024":{"country":"CN","name":"xiadengfang","lat":"26.370","long":"116.92"},"1025":{"country":"CN","name":"xiadengtian","lat":"24.211","long":"112.53"},"1026":{"country":"CN","name":"xiadeng","lat":"30.515","long":"114.60"},"1027":{"country":"CN","name":"xiadengxi","lat":"27.552","long":"118.38"},"1028":{"country":"CN","name":"xiadianfang","lat":"34.838","long":"107.35"},"1029":{"country":"CN","name":"xiadianhedong","lat":"41.264","long":"119.82"},"1030":{"country":"CN","name":"xiadiankou","lat":"23.474","long":"111.42"},"1031":{"country":"CN","name":"xiadianmiao","lat":"30.951","long":"120.84"},"1032":{"country":"CN","name":"xiadianpu","lat":"30.341","long":"115.49"},"1033":{"country":"CN","name":"xiadianwan","lat":"36.991","long":"106.38"},"1034":{"country":"CN","name":"xiadianwei","lat":"25.69","long":"118.96"},"1035":{"country":"CN","name":"xiadian","lat":"34.286","long":"112.73"},"1036":{"country":"CN","name":"xiadian","lat":"28.962","long":"119.93"},"1037":{"country":"CN","name":"xiadian","lat":"25.856","long":"117.30"},"1038":{"country":"CN","name":"xiadian","lat":"36.901","long":"119.45"},"1039":{"country":"CN","name":"xiadian","lat":"31.412","long":"114.30"},"1040":{"country":"CN","name":"xiadian","lat":"40.446","long":"122.34"},"1041":{"country":"CN","name":"xiadian","lat":"36.510","long":"112.92"},"1042":{"country":"CN","name":"xiadian","lat":"24.167","long":"114.27"},"1043":{"country":"CN","name":"xiadianxin","lat":"24.866","long":"102.23"},"1044":{"country":"CN","name":"xiadianzi","lat":"43.063","long":"126.92"},"1045":{"country":"CN","name":"xiadianzi","lat":"40.958","long":"125.31"},"1046":{"country":"CN","name":"xiadianzi","lat":"32.137","long":"106.33"},"1047":{"country":"CN","name":"xiadidashui","lat":"41.223","long":"119.67"},"1048":{"country":"CN","name":"xiadieruo","lat":"24.457","long":"102.15"},"1049":{"country":"CN","name":"xiadieshi","lat":"29.403","long":"121.12"},"1050":{"country":"CN","name":"xiadie","lat":"26.472","long":"118.13"},"1051":{"country":"CN","name":"xiadigang","lat":"29.969","long":"115.25"},"1052":{"country":"CN","name":"xiadijiao","lat":"21.787","long":"110.24"},"1053":{"country":"CN","name":"xiadingcun","lat":"34.614","long":"108.26"},"1054":{"country":"CN","name":"xiadinghai","lat":"25.851","long":"117.63"},"1055":{"country":"CN","name":"xiadingjiapo","lat":"31.245","long":"113.47"},"1056":{"country":"CN","name":"xiading jiatou","lat":"30.721","long":"119.04"},"1057":{"country":"CN","name":"xiadingjiawan","lat":"30.439","long":"112.40"},"1058":{"country":"CN","name":"xiadingjia","lat":"37.545","long":"120.50"},"1059":{"country":"CN","name":"xiadingjia zhen","lat":"37.545","long":"120.50"},"1060":{"country":"CN","name":"xiading shangzhuang","lat":"35.335","long":"111.13"},"1061":{"country":"CN","name":"xiading","lat":"35.349","long":"111.13"},"1062":{"country":"CN","name":"xiading","lat":"34.614","long":"108.26"},"1063":{"country":"CN","name":"xiadinjiafang","lat":"40.615","long":"124.01"},"1064":{"country":"CN","name":"xiadiwang","lat":"34.352","long":"108.65"},"1065":{"country":"CN","name":"xiadi","lat":"25.371","long":"117.62"},"1066":{"country":"CN","name":"xiadi","lat":"35.577","long":"110.87"},"1067":{"country":"CN","name":"xiadi","lat":"23.392","long":"116.13"},"1068":{"country":"CN","name":"xiadiyang","lat":"25.741","long":"118.22"},"1069":{"country":"CN","name":"xiadiyuan","lat":"29.590","long":"115.06"},"1070":{"country":"CN","name":"xiadongao","lat":"27.85","long":"121.05"},"1071":{"country":"CN","name":"xiadongban","lat":"25.841","long":"117.56"},"1072":{"country":"CN","name":"xiadongcao","lat":"27.329","long":"116.78"},"1073":{"country":"CN","name":"xiadongcha","lat":"24.974","long":"112.56"},"1074":{"country":"CN","name":"xiadongcun","lat":"30.716","long":"117.88"},"1075":{"country":"CN","name":"xiadongcun","lat":"22.359","long":"112.76"},"1076":{"country":"CN","name":"xiadongdu","lat":"29.586","long":"120.83"},"1077":{"country":"CN","name":"xiadonggang","lat":"28.628","long":"114.75"},"1078":{"country":"CN","name":"xiadong gongshe","lat":"31.401","long":"84.601"},"1079":{"country":"CN","name":"xiadongguaping","lat":"25.822","long":"114.01"},"1080":{"country":"CN","name":"xiadongguo","lat":"24.032","long":"117.84"},"1081":{"country":"CN","name":"xiadonghui","lat":"31.917","long":"107.50"},"1082":{"country":"CN","name":"xiadongjiafan","lat":"31.973","long":"113.68"},"1083":{"country":"CN","name":"xiadongjia","lat":"28.967","long":"117.89"},"1084":{"country":"CN","name":"xiadongjie","lat":"29.430","long":"110.01"},"1085":{"country":"CN","name":"xiadongkeng","lat":"28.707","long":"118.92"},"1086":{"country":"CN","name":"xiadongkeng","lat":"25.295","long":"115.87"},"1087":{"country":"CN","name":"xiadongkeng","lat":"25.595","long":"116.34"},"1088":{"country":"CN","name":"xiadongkou","lat":"29.416","long":"115.25"},"1089":{"country":"CN","name":"xiadongling","lat":"21.683","long":"111.38"},"1090":{"country":"CN","name":"xiadongli","lat":"27.790","long":"114.94"},"1091":{"country":"CN","name":"xiadongpai","lat":"23.254","long":"114.93"},"1092":{"country":"CN","name":"xiadongping","lat":"29.976","long":"110.51"},"1093":{"country":"CN","name":"xiadongping","lat":"33.315","long":"104.91"},"1094":{"country":"CN","name":"xiadongshan","lat":"29.693","long":"120.67"},"1095":{"country":"CN","name":"xiadongshan","lat":"26.451","long":"115.87"},"1096":{"country":"CN","name":"xiadongshan","lat":"27.056","long":"117.18"},"1097":{"country":"CN","name":"xiadongshan","lat":"40.830","long":"120.16"},"1098":{"country":"CN","name":"xiadongtang","lat":"27.645","long":"114.38"},"1099":{"country":"CN","name":"xiadongwan","lat":"29.575","long":"111.99"},"1100":{"country":"CN","name":"xiadong","lat":"29.455","long":"121.13"},"1101":{"country":"CN","name":"xiadong","lat":"25.058","long":"116.06"},"1102":{"country":"CN","name":"xiadong","lat":"31.433","long":"84.666"},"1103":{"country":"CN","name":"xiadong","lat":"30.745","long":"105.75"},"1104":{"country":"CN","name":"xiadong","lat":"25.347","long":"109.55"},"1105":{"country":"CN","name":"xiadong","lat":"36.356","long":"106.32"},"1106":{"country":"CN","name":"xiadong","lat":"23.672","long":"117.02"},"1107":{"country":"CN","name":"xiadongxie","lat":"29.430","long":"110.01"},"1108":{"country":"CN","name":"xiadongxi","lat":"27.320","long":"119.42"},"1109":{"country":"CN","name":"xiadongxu","lat":"22.949","long":"112.18"},"1110":{"country":"CN","name":"xiadongying","lat":"27.115","long":"115.33"},"1111":{"country":"CN","name":"xiadongzigou","lat":"42.003","long":"120.66"},"1112":{"country":"CN","name":"xiadongzi","lat":"21.582","long":"111.66"},"1113":{"country":"CN","name":"xiadoucun","lat":"34.811","long":"108.30"},"1114":{"country":"CN","name":"xiadoumen","lat":"25.635","long":"119.57"},"1115":{"country":"CN","name":"xiadou","lat":"34.811","long":"108.30"},"1116":{"country":"CN","name":"xiadou","lat":"21.931","long":"112.50"},"1117":{"country":"CN","name":"xiadouying","lat":"40.583","long":"115.56"},"1118":{"country":"CN","name":"xiaduan","lat":"28.303","long":"120.78"},"1119":{"country":"CN","name":"xiaduan","lat":"27.933","long":"114.04"},"1120":{"country":"CN","name":"xiaduanzhen","lat":"27.552","long":"116.76"},"1121":{"country":"CN","name":"xiaduao","lat":"29.895","long":"121.67"},"1122":{"country":"CN","name":"xiaducun","lat":"31.563","long":"120.10"},"1123":{"country":"CN","name":"xiadu fenchang","lat":"30.857","long":"118.78"},"1124":{"country":"CN","name":"xiaduikanshi","lat":"23.991","long":"114.17"},"1125":{"country":"CN","name":"xiaduishan","lat":"19.814","long":"110.79"},"1126":{"country":"CN","name":"xiadui","lat":"27.204","long":"118.17"},"1127":{"country":"CN","name":"xiaduizhuangshi","lat":"41.013","long":"123.04"},"1128":{"country":"CN","name":"xiadujiang","lat":"25.884","long":"108.45"},"1129":{"country":"CN","name":"xiadujia","lat":"33.884","long":"104.71"},"1130":{"country":"CN","name":"xiaduncun","lat":"26.027","long":"117.27"},"1131":{"country":"CN","name":"xiadunpo","lat":"31.653","long":"108.34"},"1132":{"country":"CN","name":"xiadunshang","lat":"32.938","long":"104.55"},"1133":{"country":"CN","name":"xiadun","lat":"24.687","long":"118.19"},"1134":{"country":"CN","name":"xiadun","lat":"29.808","long":"115.27"},"1135":{"country":"CN","name":"xiadun","lat":"23.438","long":"115.63"},"1136":{"country":"CN","name":"xiadunzhu","lat":"29.880","long":"116.60"},"1137":{"country":"CN","name":"xiaduo gongshe","lat":"28.4","long":"86.5"},"1138":{"country":"CN","name":"xiaduopu","lat":"28.228","long":"112.63"},"1139":{"country":"CN","name":"xiaduo","lat":"28.401","long":"86.501"},"1140":{"country":"CN","name":"xiaduo","lat":"31.797","long":"98.795"},"1141":{"country":"CN","name":"xiaduping","lat":"30.35","long":"110.01"},"1142":{"country":"CN","name":"xiadushan","lat":"30.570","long":"114.03"},"1143":{"country":"CN","name":"xiaduwei","lat":"23.320","long":"116.05"},"1144":{"country":"CN","name":"xiadu","lat":"30.923","long":"118.77"},"1145":{"country":"CN","name":"xiadu","lat":"28.938","long":"119.82"},"1146":{"country":"CN","name":"xiadu","lat":"24.820","long":"116.45"},"1147":{"country":"CN","name":"xiadu","lat":"23.871","long":"116.40"},"1148":{"country":"CN","name":"xiadu","lat":"29.213","long":"103.96"},"1149":{"country":"CN","name":"xiadu xiang","lat":"30.923","long":"118.77"},"1150":{"country":"CN","name":"xiaduzi","lat":"23.302","long":"114.88"},"1151":{"country":"CN","name":"xiaeluo","lat":"29.137","long":"102.70"},"1152":{"country":"CN","name":"xiaeping","lat":"32.191","long":"109.66"},"1153":{"country":"CN","name":"xiaerchang","lat":"29.613","long":"114.33"},"1154":{"country":"CN","name":"xiaerdaogangcun","lat":"41.556","long":"128.05"},"1155":{"country":"CN","name":"xiaerdaogou","lat":"43.138","long":"129.15"},"1156":{"country":"CN","name":"xiaergai","lat":"32.308","long":"92.808"},"1157":{"country":"CN","name":"xiaergongchong","lat":"27.941","long":"111.64"},"1158":{"country":"CN","name":"xiaerguliu","lat":"41.473","long":"127.47"},"1159":{"country":"CN","name":"xiaermen","lat":"32.615","long":"113.23"},"1160":{"country":"CN","name":"xiaertai","lat":"29.180","long":"109.27"},"1161":{"country":"CN","name":"xiaertai","lat":"42.949","long":"124.29"},"1162":{"country":"CN","name":"xiaertai xiang","lat":"42.949","long":"124.29"},"1163":{"country":"CN","name":"xiaer","lat":"29.102","long":"92.802"},"1164":{"country":"CN","name":"xiaer","lat":"29.005","long":"101.51"},"1165":{"country":"CN","name":"xiaerzao","lat":"30.277","long":"121.31"},"1166":{"country":"CN","name":"xiae","lat":"30.492","long":"101.52"},"1167":{"country":"CN","name":"xiafajing","lat":"29.674","long":"117.33"},"1168":{"country":"CN","name":"xiafandi","lat":"30.023","long":"120.27"},"1169":{"country":"CN","name":"xiafangche","lat":"26.514","long":"116.96"},"1170":{"country":"CN","name":"xiafangcun","lat":"26.636","long":"115.45"},"1171":{"country":"CN","name":"xiafangcun","lat":"26.141","long":"119.30"},"1172":{"country":"CN","name":"xiafanggucheng","lat":"24.722","long":"102.59"},"1173":{"country":"CN","name":"xiafanghuangjia","lat":"28.191","long":"116.83"},"1174":{"country":"CN","name":"xiafang nongchang","lat":"34.404","long":"119.06"},"1175":{"country":"CN","name":"xiafangping","lat":"31.786","long":"106.20"},"1176":{"country":"CN","name":"xiafangqiao","lat":"30.122","long":"120.53"},"1177":{"country":"CN","name":"xiafangquan","lat":"29.164","long":"119.29"},"1178":{"country":"CN","name":"xiafangshen","lat":"40.720","long":"122.82"},"1179":{"country":"CN","name":"xiafangwan","lat":"26.854","long":"116.66"},"1180":{"country":"CN","name":"xiafang","lat":"30.716","long":"118.4"},"1181":{"country":"CN","name":"xiafang","lat":"27.945","long":"120.68"},"1182":{"country":"CN","name":"xiafang","lat":"28.4","long":"118.15"},"1183":{"country":"CN","name":"xiafang","lat":"26.572","long":"116.93"},"1184":{"country":"CN","name":"xiafang","lat":"30.861","long":"121.11"},"1185":{"country":"CN","name":"xiafang","lat":"22.581","long":"111.61"},"1186":{"country":"CN","name":"xiafang xiang","lat":"26.572","long":"116.93"},"1187":{"country":"CN","name":"xiafangyuan","lat":"28.387","long":"119.58"},"1188":{"country":"CN","name":"xiafangzi chaoxianzucun","lat":"41.698","long":"124.73"},"1189":{"country":"CN","name":"xiafangzi","lat":"43.596","long":"130.81"},"1190":{"country":"CN","name":"xiafangzi","lat":"28.594","long":"105.41"},"1191":{"country":"CN","name":"xiafanjiatun","lat":"41.442","long":"121.02"},"1192":{"country":"CN","name":"xiafanwang","lat":"29.956","long":"115.27"},"1193":{"country":"CN","name":"xiafan","lat":"30.927","long":"119.46"},"1194":{"country":"CN","name":"xiafan","lat":"29.605","long":"121.40"},"1195":{"country":"CN","name":"xiafan","lat":"29.591","long":"115.02"},"1196":{"country":"CN","name":"xiafan","lat":"34.935","long":"109.25"},"1197":{"country":"CN","name":"xiafan","lat":"35.609","long":"105.77"},"1198":{"country":"CN","name":"xiafan zhen","lat":"29.767","long":"115.54"},"1199":{"country":"CN","name":"xiafawei","lat":"24.473","long":"101.98"},"1200":{"country":"CN","name":"xiafeicun","lat":"26.889","long":"118.64"},"1201":{"country":"CN","name":"xiafeidi","lat":"42.3","long":"124.35"},"1202":{"country":"CN","name":"xiafei","lat":"35.583","long":"111.03"},"1203":{"country":"CN","name":"xiafengcha","lat":"29.244","long":"121.45"},"1204":{"country":"CN","name":"xiafengcun","lat":"29.813","long":"120.85"},"1205":{"country":"CN","name":"xiafenghuangshan","lat":"26.021","long":"111.24"},"1206":{"country":"CN","name":"xiafenghua","lat":"28.407","long":"119.95"},"1207":{"country":"CN","name":"xiafengjiabao","lat":"34.163","long":"107.88"},"1208":{"country":"CN","name":"xiafengjiang","lat":"27.013","long":"114.82"},"1209":{"country":"CN","name":"xiafengkeng","lat":"29.095","long":"121.42"},"1210":{"country":"CN","name":"xiafengkeng","lat":"25.898","long":"117.46"},"1211":{"country":"CN","name":"xiafengpeng","lat":"29.848","long":"121.97"},"1212":{"country":"CN","name":"xiafengpo","lat":"27.319","long":"109.79"},"1213":{"country":"CN","name":"xiafengshan","lat":"25.726","long":"115.00"},"1214":{"country":"CN","name":"xiafengsi","lat":"31.795","long":"112.22"},"1215":{"country":"CN","name":"xiafeng","lat":"35.806","long":"112.14"},"1216":{"country":"CN","name":"xiafeng","lat":"25.467","long":"118.38"},"1217":{"country":"CN","name":"xiafengyuan","lat":"27.433","long":"114.75"},"1218":{"country":"CN","name":"xiafenma","lat":"31.841","long":"117.68"},"1219":{"country":"CN","name":"xiafenyuan","lat":"28.588","long":"117.60"},"1220":{"country":"CN","name":"xiafuche","lat":"25.787","long":"118.05"},"1221":{"country":"CN","name":"xiafugeng","lat":"22.750","long":"113.47"},"1222":{"country":"CN","name":"xiafujia","lat":"28.695","long":"115.54"},"1223":{"country":"CN","name":"xiafujiayuan","lat":"33.446","long":"107.25"},"1224":{"country":"CN","name":"xiafukeng","lat":"26.608","long":"115.03"},"1225":{"country":"CN","name":"xiafumengguzuxiang","lat":"41.752","long":"120.88"},"1226":{"country":"CN","name":"xiafuqian","lat":"28.801","long":"117.17"},"1227":{"country":"CN","name":"xiafuqiao","lat":"31.476","long":"116.36"},"1228":{"country":"CN","name":"xiafushan","lat":"23.675","long":"116.93"},"1229":{"country":"CN","name":"xiafu","lat":"28.752","long":"119.85"},"1230":{"country":"CN","name":"xiafu","lat":"23.639","long":"117.26"},"1231":{"country":"CN","name":"xiafu","lat":"25.008","long":"113.70"},"1232":{"country":"CN","name":"xiafuxing","lat":"31.233","long":"118.1"},"1233":{"country":"CN","name":"xiafuxi","lat":"30.136","long":"119.37"},"1234":{"country":"CN","name":"xiafuzhou","lat":"29.758","long":"117.84"},"1235":{"country":"CN","name":"xiafuzhu","lat":"26.292","long":"115.81"},"1236":{"country":"CN","name":"xiagachagou","lat":"41.633","long":"120.71"},"1237":{"country":"CN","name":"xiagacha","lat":"41.591","long":"120.51"},"1238":{"country":"CN","name":"xiagali","lat":"34.139","long":"104.35"},"1239":{"country":"CN","name":"xiagangang","lat":"39.470","long":"113.11"},"1240":{"country":"CN","name":"xiagangbu","lat":"30.827","long":"120.00"},"1241":{"country":"CN","name":"xiagangdong","lat":"29.450","long":"116.54"},"1242":{"country":"CN","name":"xiaganggang","lat":"41.840","long":"120.95"},"1243":{"country":"CN","name":"xiagangkou","lat":"29.696","long":"117.40"},"1244":{"country":"CN","name":"xiagangli","lat":"29.828","long":"115.83"},"1245":{"country":"CN","name":"xiagang","lat":"29.248","long":"117.65"},"1246":{"country":"CN","name":"xiagang","lat":"31.896","long":"120.21"},"1247":{"country":"CN","name":"xiagang","lat":"41.833","long":"124.52"},"1248":{"country":"CN","name":"xiagang","lat":"20.504","long":"110.50"},"1249":{"country":"CN","name":"xiagangyao","lat":"41.331","long":"123.49"},"1250":{"country":"CN","name":"xiagangzi","lat":"41.833","long":"124.52"},"1251":{"country":"CN","name":"xiagankeng","lat":"24.711","long":"114.30"},"1252":{"country":"CN","name":"xiagan","lat":"28.289","long":"119.21"},"1253":{"country":"CN","name":"xiaganzuo","lat":"33.099","long":"104.23"},"1254":{"country":"CN","name":"xiagaochuan","lat":"32.802","long":"108.05"},"1255":{"country":"CN","name":"xiagaojiacha","lat":"35.417","long":"105.87"},"1256":{"country":"CN","name":"xiagaojiafan","lat":"31.303","long":"113.18"},"1257":{"country":"CN","name":"xiagaojiagou","lat":"41.426","long":"121.04"},"1258":{"country":"CN","name":"xiagaojiawan","lat":"30.901","long":"115.37"},"1259":{"country":"CN","name":"xiagaojia","lat":"29.118","long":"111.92"},"1260":{"country":"CN","name":"xiagaokeng","lat":"28.613","long":"116.34"},"1261":{"country":"CN","name":"xiagaokeng","lat":"24.552","long":"117.63"},"1262":{"country":"CN","name":"xiagaoling","lat":"23.605","long":"115.57"},"1263":{"country":"CN","name":"xiagaoliwo","lat":"43.916","long":"130.79"},"1264":{"country":"CN","name":"xiagaoli","lat":"27.905","long":"114.47"},"1265":{"country":"CN","name":"xiagaonian","lat":"34.894","long":"108.93"},"1266":{"country":"CN","name":"xiagaopo","lat":"34.610","long":"108.54"},"1267":{"country":"CN","name":"xiagaoqianshan","lat":"25.054","long":"115.07"},"1268":{"country":"CN","name":"xiagaoqiao","lat":"30.516","long":"120.11"},"1269":{"country":"CN","name":"xiagaoshan","lat":"24.352","long":"117.09"},"1270":{"country":"CN","name":"xiagaosha","lat":"23.995","long":"116.34"},"1271":{"country":"CN","name":"xiagaotaizi","lat":"36.229","long":"106.88"},"1272":{"country":"CN","name":"xiagaotan","lat":"29.361","long":"114.03"},"1273":{"country":"CN","name":"xiagao","lat":"30.060","long":"119.84"},"1274":{"country":"CN","name":"xiagao","lat":"25.392","long":"118.95"},"1275":{"country":"CN","name":"xiagao","lat":"34.721","long":"103.07"},"1276":{"country":"CN","name":"xiagaoxie","lat":"25.413","long":"115.76"},"1277":{"country":"CN","name":"xiagaoya","lat":"25.933","long":"109.51"},"1278":{"country":"CN","name":"xiagaozhai","lat":"25.179","long":"110.03"},"1279":{"country":"CN","name":"xiagaozhuang","lat":"28.897","long":"114.53"},"1280":{"country":"CN","name":"xiagaozhuang","lat":"40.08","long":"113.57"},"1281":{"country":"CN","name":"xiagaozhuang","lat":"34.689","long":"107.68"},"1282":{"country":"CN","name":"xiaga","lat":"43.008","long":"129.77"},"1283":{"country":"CN","name":"xiaga","lat":"28.902","long":"88.302"},"1284":{"country":"CN","name":"xiagecun","lat":"28.442","long":"115.47"},"1285":{"country":"CN","name":"xiageligou","lat":"35.047","long":"105.23"},"1286":{"country":"CN","name":"xiagengjiazhuang","lat":"38.583","long":"113.38"},"1287":{"country":"CN","name":"xiageng","lat":"24.031","long":"112.41"},"1288":{"country":"CN","name":"xiagepai","lat":"23.913","long":"116.27"},"1289":{"country":"CN","name":"xiageping","lat":"25.799","long":"118.32"},"1290":{"country":"CN","name":"xiageshan","lat":"24.585","long":"117.47"},"1291":{"country":"CN","name":"xiagetai","lat":"25.729","long":"118.00"},"1292":{"country":"CN","name":"xiageta","lat":"39.161","long":"112.29"},"1293":{"country":"CN","name":"xiage","lat":"28.862","long":"120.85"},"1294":{"country":"CN","name":"xiage","lat":"29.128","long":"116.51"},"1295":{"country":"CN","name":"xiage","lat":"24.29","long":"117.29"},"1296":{"country":"CN","name":"xiage","lat":"23.930","long":"114.89"},"1297":{"country":"CN","name":"xiage zhen","lat":"23.993","long":"117.01"},"1298":{"country":"CN","name":"xiagezhuang","lat":"36.693","long":"120.43"},"1299":{"country":"CN","name":"xiagezhu","lat":"30.566","long":"119.10"},"1300":{"country":"CN","name":"xiagongbei","lat":"24.253","long":"115.79"},"1301":{"country":"CN","name":"xiagongchao","lat":"30.030","long":"114.50"},"1302":{"country":"CN","name":"xiagongcheng","lat":"29.480","long":"115.24"},"1303":{"country":"CN","name":"xiagongcun","lat":"39.746","long":"114.46"},"1304":{"country":"CN","name":"xiagongjiabao","lat":"40.178","long":"123.38"},"1305":{"country":"CN","name":"xiagong jiashan","lat":"28.983","long":"111.00"},"1306":{"country":"CN","name":"xiagongli","lat":"23.326","long":"115.54"},"1307":{"country":"CN","name":"xia gongma","lat":"33.833","long":"100.08"},"1308":{"country":"CN","name":"xiagongping","lat":"22.255","long":"111.12"},"1309":{"country":"CN","name":"xiagongqiao","lat":"27.863","long":"111.00"},"1310":{"country":"CN","name":"xiagongtang","lat":"26.593","long":"112.16"},"1311":{"country":"CN","name":"xiagongtoushui","lat":"23.220","long":"112.53"},"1312":{"country":"CN","name":"xiagong","lat":"29.164","long":"119.49"},"1313":{"country":"CN","name":"xiagong","lat":"27.724","long":"114.31"},"1314":{"country":"CN","name":"xiagong","lat":"25.134","long":"117.27"},"1315":{"country":"CN","name":"xiagong","lat":"20.42","long":"109.90"},"1316":{"country":"CN","name":"xiagongyuan","lat":"28.643","long":"110.86"},"1317":{"country":"CN","name":"xiagoubang","lat":"33.169","long":"119.46"},"1318":{"country":"CN","name":"xiagouli","lat":"33.898","long":"105.03"},"1319":{"country":"CN","name":"xiagounan","lat":"35.317","long":"111.39"},"1320":{"country":"CN","name":"xiagouping","lat":"22.997","long":"112.46"},"1321":{"country":"CN","name":"xiagou","lat":"48.193","long":"134.30"},"1322":{"country":"CN","name":"xiagou","lat":"33.762","long":"112.33"},"1323":{"country":"CN","name":"xiagou","lat":"35.146","long":"105.10"},"1324":{"country":"CN","name":"xiagou","lat":"41.090","long":"123.63"},"1325":{"country":"CN","name":"xiagou","lat":"36.245","long":"116.32"},"1326":{"country":"CN","name":"xiagou","lat":"21.191","long":"109.97"},"1327":{"country":"CN","name":"xiagou","lat":"18.768","long":"110.22"},"1328":{"country":"CN","name":"xiagouyuan","lat":"18.882","long":"110.34"},"1329":{"country":"CN","name":"xiaguamo","lat":"27.917","long":"102.86"},"1330":{"country":"CN","name":"xiaguancheng","lat":"39.242","long":"112.72"},"1331":{"country":"CN","name":"xiaguanchong","lat":"27.336","long":"111.42"},"1332":{"country":"CN","name":"xiaguanchong","lat":"30.838","long":"115.06"},"1333":{"country":"CN","name":"xiaguancun","lat":"29.773","long":"118.22"},"1334":{"country":"CN","name":"xiaguandaokou","lat":"42.876","long":"129.28"},"1335":{"country":"CN","name":"xiaguandao","lat":"34.310","long":"108.57"},"1336":{"country":"CN","name":"xiaguandiping","lat":"33.269","long":"106.56"},"1337":{"country":"CN","name":"xiaguandi","lat":"33.152","long":"104.66"},"1338":{"country":"CN","name":"xiaguanfeng","lat":"24.388","long":"117.07"},"1339":{"country":"CN","name":"xiaguangancun","lat":"26.655","long":"111.16"},"1340":{"country":"CN","name":"xiaguanggou","lat":"33.066","long":"119.75"},"1341":{"country":"CN","name":"xiaguangnan","lat":"25.848","long":"113.96"},"1342":{"country":"CN","name":"xiaguang","lat":"33.072","long":"119.75"},"1343":{"country":"CN","name":"xiaguang","lat":"24.920","long":"118.47"},"1344":{"country":"CN","name":"xiaguang","lat":"23.743","long":"116.91"},"1345":{"country":"CN","name":"xiaguanjiawan","lat":"30.832","long":"112.25"},"1346":{"country":"CN","name":"xiaguankou","lat":"21.528","long":"110.69"},"1347":{"country":"CN","name":"xiaguanliao","lat":"26.398","long":"116.71"},"1348":{"country":"CN","name":"xiaguanping","lat":"25.056","long":"118.59"},"1349":{"country":"CN","name":"xiaguantang","lat":"23.048","long":"112.14"},"1350":{"country":"CN","name":"xiaguantian","lat":"24.991","long":"114.30"},"1351":{"country":"CN","name":"xiaguantou","lat":"33.838","long":"104.66"},"1352":{"country":"CN","name":"xiaguantun","lat":"35.366","long":"116.16"},"1353":{"country":"CN","name":"xiaguan","lat":"27.173","long":"120.46"},"1354":{"country":"CN","name":"xiaguan","lat":"28.597","long":"115.12"},"1355":{"country":"CN","name":"xiaguan","lat":"32.091","long":"118.73"},"1356":{"country":"CN","name":"xiaguan","lat":"33.362","long":"111.78"},"1357":{"country":"CN","name":"xiaguan","lat":"25.471","long":"112.00"},"1358":{"country":"CN","name":"xiaguan","lat":"26.25","long":"106.05"},"1359":{"country":"CN","name":"xiaguan","lat":"39.12","long":"114.16"},"1360":{"country":"CN","name":"xiaguan","lat":"25.566","long":"100.23"},"1361":{"country":"CN","name":"xiaguanxu","lat":"25.471","long":"112.00"},"1362":{"country":"CN","name":"xiaguanying","lat":"39.983","long":"118.8"},"1363":{"country":"CN","name":"xiaguanying","lat":"35.958","long":"104.18"},"1364":{"country":"CN","name":"xiaguanyingzi","lat":"42.203","long":"121.09"},"1365":{"country":"CN","name":"xiaguanyintang","lat":"39.466","long":"113.66"},"1366":{"country":"CN","name":"xiaguanyuan","lat":"39.062","long":"112.80"},"1367":{"country":"CN","name":"xiaguanzhai","lat":"28.637","long":"118.37"},"1368":{"country":"CN","name":"xiaguanzhen","lat":"27.173","long":"120.46"},"1369":{"country":"CN","name":"xiaguan zhen","lat":"29.843","long":"121.03"},"1370":{"country":"CN","name":"xiaguanzhuang","lat":"33.502","long":"112.54"},"1371":{"country":"CN","name":"xiaguanzhuang","lat":"38.650","long":"112.27"},"1372":{"country":"CN","name":"xiaguao","lat":"28.527","long":"121.33"},"1373":{"country":"CN","name":"xiagucheng","lat":"37.7","long":"102.58"},"1374":{"country":"CN","name":"xiaguchi","lat":"37.433","long":"111.63"},"1375":{"country":"CN","name":"xiagucun","lat":"26.825","long":"115.54"},"1376":{"country":"CN","name":"xiagudi","lat":"25.089","long":"115.61"},"1377":{"country":"CN","name":"xiagufeng","lat":"29.700","long":"118.53"},"1378":{"country":"CN","name":"xiaguihu","lat":"25.057","long":"115.90"},"1379":{"country":"CN","name":"xiaguikeng","lat":"26.424","long":"116.10"},"1380":{"country":"CN","name":"xiaguitang","lat":"31.565","long":"118.86"},"1381":{"country":"CN","name":"xiagui","lat":"28.229","long":"120.34"},